[
  {
    "sigla": "E/CRE(01.01.001)",
    "nome": "Escola Municipal Vicente Licinio Cardoso",
    "endereco": "Rua Edgar Gordilho 63",
    "bairro": "SAÚDE",
    "cep": "20081-070",
    "email": "emvlcardoso@rioeduca.net",
    "telefone": "2253-4643 2263-7200",
    "lat": -22.897114,
    "lng": -43.1836266,
    "id_setor": "1602"
  },
  {
    "sigla": "E/CRE(01.01.003)",
    "nome": "Escola Municipal Darcy Vargas",
    "endereco": "Rua Souza e Silva 112",
    "bairro": "GAMBOA",
    "cep": "20220-560",
    "email": "ccvargas@rioeduca.net",
    "telefone": "2233-0593",
    "lat": -22.8964786,
    "lng": -43.1894545,
    "id_setor": "1602"
  },
  {
    "sigla": "E/CRE(01.01.004)",
    "nome": "Escola Municipal Benjamim Constant",
    "endereco": "Pça. Marechal Hermes S/Nº",
    "bairro": "Santo Cristo",
    "cep": "20220-430",
    "email": "embconstant@rioeduca.net",
    "telefone": "2263-3188",
    "lat": -22.9001515,
    "lng": -43.2067238,
    "id_setor": "1602"
  },
  {
    "sigla": "E/CRE(01.01.005)",
    "nome": "Escola Municipal General Mitre",
    "endereco": "Rua Farnese, 39",
    "bairro": "Santo Cristo",
    "cep": "20220-640",
    "email": "emgmitre@rioeduca.net",
    "telefone": "2263-5478",
    "lat": -22.9051935,
    "lng": -43.2029934,
    "id_setor": "1602"
  },
  {
    "sigla": "E/CRE(01.01.006)",
    "nome": "Escola Municipal Francisco Benjamin Gallotti",
    "endereco": "Rua da América 81",
    "bairro": "Santo Cristo",
    "cep": "20220-590",
    "email": "embgallotti@rioeduca.net",
    "telefone": "2233-1273 2233-1822 9300-6282",
    "lat": -22.9012634,
    "lng": -43.1999615,
    "id_setor": "1602"
  },
  {
    "sigla": "E/CRE(01.01.007)",
    "nome": "Escola Municipal Marechal Mascarenhas de Moraes",
    "endereco": "Rua Carlos Seidl, 20",
    "bairro": "Caju",
    "cep": "20931-003",
    "email": "emmmoraes@rioeduca.net",
    "telefone": "3895-8622",
    "lat": -22.8770558,
    "lng": -43.2165028,
    "id_setor": "1602"
  },
  {
    "sigla": "E/CRE(01.01.008)",
    "nome": "Escola Municipal Marechal Esperidião Rosas",
    "endereco": "Rua Duque De Caxias 5",
    "bairro": "Caju",
    "cep": "20931-590",
    "email": "emmrosas@rioeduca.net",
    "telefone": "3895-8578 9293-6059",
    "lat": -22.8800795,
    "lng": -43.2185691,
    "id_setor": "1602"
  },
  {
    "sigla": "E/CRE(01.01.009)",
    "nome": "Escola Municipal Professor Walter Carlos de Magalhães Fraenkel",
    "endereco": "Rua Carlos Seidl 1141",
    "bairro": "Caju",
    "cep": "20931-004",
    "email": "ccpfraenkel@rioeduca.net",
    "telefone": "3878-1610",
    "lat": -22.8785104,
    "lng": -43.2231311,
    "id_setor": "1602"
  },
  {
    "sigla": "E/CRE(01.01.011)",
    "nome": "Escola Municipal Felix Mielli Venerando",
    "endereco": "Rua Carlos Seixas 525",
    "bairro": "Caju",
    "cep": "20931-007",
    "email": "geofelix@rioeduca.net",
    "telefone": "2213-5768",
    "lat": -22.878618,
    "lng": -43.22952960000001,
    "id_setor": "1602"
  },
  {
    "sigla": "E/CRE(01.01.012)",
    "nome": "Escola Municipal Professora Laura Sylvia Mendes Pereira",
    "endereco": "Rua Gal. Sampaio 71",
    "bairro": "Caju",
    "cep": "20931-350",
    "email": "emppereira@rioeduca.net",
    "telefone": "3895-8625",
    "lat": -22.8782686,
    "lng": -43.2162548,
    "id_setor": "1602"
  },
  {
    "sigla": "E/CRE(01.01.501)",
    "nome": "Ciep Henfil",
    "endereco": "Rua Carlos Seidl S/Nº",
    "bairro": "Caju",
    "cep": "20931-003",
    "email": "ciephenfil@rioeduca.net",
    "telefone": "3895-8627",
    "lat": -22.8767078,
    "lng": -43.2190437,
    "id_setor": "1602"
  },
  {
    "sigla": "E/CRE(01.01.601)",
    "nome": "Creche Municipal Ladeira dos Funcionários",
    "endereco": "Rua Carlos Seidl  -           (  Ladeira dos Funcionários ) 1.281",
    "bairro": "Caju",
    "cep": "20931-004",
    "email": "cmfuncionarios@rioeduca.net",
    "telefone": "3895-8626 3895-2887",
    "lat": -22.8767078,
    "lng": -43.2190437,
    "id_setor": "1602"
  },
  {
    "sigla": "E/CRE(01.01.602)",
    "nome": "Creche Municipal Virgínia Lemos",
    "endereco": "Rua Paraíso 17 Parque Alegria",
    "bairro": "Santo Cristovão",
    "cep": "20920-460",
    "email": "cmlemos@rioeduca.net",
    "telefone": "3895-3628",
    "lat": -22.883899,
    "lng": -43.229099,
    "id_setor": "1602"
  },
  {
    "sigla": "E/CRE(01.01.603)",
    "nome": "Creche Municipal Senninha",
    "endereco": "Rua Carlos Seidl   - Parque Boa Esperança  71",
    "bairro": "Caju",
    "cep": "20931-002",
    "email": "cmsenninha@rioeduca.net",
    "telefone": "3895-3384",
    "lat": -22.8835327,
    "lng": -43.2282677,
    "id_setor": "1602"
  },
  {
    "sigla": "E/CRE(01.01.604)",
    "nome": "Creche Municipal Sempre Vida P. Conquista",
    "endereco": "Rua Carlos Seidl          ( Parque Conquista ) 950 Fundos",
    "bairro": "Caju",
    "cep": "20931-005",
    "email": "cmsvconquista@rioeduca.net",
    "telefone": "3895-3383 3895-8628",
    "lat": -22.8776292,
    "lng": -43.2263926,
    "id_setor": "1602"
  },
  {
    "sigla": "E/CRE(01.01.605)",
    "nome": "Creche Municipal Clemente Ferreira",
    "endereco": "Rua Carlos Seidl       813",
    "bairro": "Caju",
    "cep": "20931-002",
    "email": "cmferreira@rioeduca.net",
    "telefone": "2587-1981 3878-0319",
    "lat": -22.8760247,
    "lng": -43.2227385,
    "id_setor": "1602"
  },
  {
    "sigla": "E/CRE(01.01.606)",
    "nome": "Creche Municipal Quinta do Caju",
    "endereco": "Rua Circular Da Quinta Do Caju  140",
    "bairro": "Caju",
    "cep": "20931-060",
    "email": "cmcaju@rioeduca.net",
    "telefone": "3895-9151",
    "lat": -22.8735465,
    "lng": -43.2116884,
    "id_setor": "1602"
  },
  {
    "sigla": "E/CRE(01.01.607)",
    "nome": "Creche Municipal Tia Dora",
    "endereco": "Rua Barão da Gamboa 203",
    "bairro": "Santo Cristo",
    "cep": "20220-690",
    "email": "cmtiadora@rioeduca.net",
    "telefone": "2233-1563",
    "lat": -22.8979664,
    "lng": -43.1974712,
    "id_setor": "1602"
  },
  {
    "sigla": "E/CRE(01.01.801)",
    "nome": "Espaço de Desenvolvimento Infantil Parque da Alegria",
    "endereco": "Rua Paraíso    S/N.°",
    "bairro": "São Cristovão",
    "cep": "20920-460",
    "email": "edipalegria@rioeduca.net",
    "telefone": "2218-5720",
    "lat": -22.88484,
    "lng": -43.2303433,
    "id_setor": "1602"
  },
  {
    "sigla": "E/CRE(01.01.802)",
    "nome": "Espaço de Desenvolvimento Infantil Machado de Assis",
    "endereco": "Rua da América    81",
    "bairro": "Santo Cristo",
    "cep": "20210-910",
    "email": "edimassis@rioeduca.net",
    "telefone": "2520-1110",
    "lat": -22.9012634,
    "lng": -43.1999615,
    "id_setor": "1602"
  },
  {
    "sigla": "E/CRE(01.01.803)",
    "nome": "Espaço de Desenvolvimento Infantil Antônio Raposo Tavares",
    "endereco": "Rua Do Propósito 73",
    "bairro": "Gamboa",
    "cep": "20220-530",
    "email": "ematavares@rioeduca.net",
    "telefone": "2253-5876 2233-0706",
    "lat": -22.8956553,
    "lng": -43.1941995,
    "id_setor": "1602"
  },
  {
    "sigla": "E/CRE(01.02.001)",
    "nome": "Escola Municipal Celestino da Silva",
    "endereco": "Rua Do Lavradio,  56",
    "bairro": "Centro",
    "cep": "20230-070",
    "email": "emcsilva@rioeduca.net",
    "telefone": "2224-2688",
    "lat": -22.9092406,
    "lng": -43.1835277,
    "id_setor": "1602"
  },
  {
    "sigla": "E/CRE(01.02.002)",
    "nome": "Escola Municipal Tiradentes",
    "endereco": "Rua Visconde de Rio Branco 48",
    "bairro": "Centro",
    "cep": "20060-080",
    "email": "emtiradentes@rioeduca.net",
    "telefone": "2224-7521",
    "lat": -22.9079102,
    "lng": -43.1853062,
    "id_setor": "1602"
  },
  {
    "sigla": "E/CRE(01.02.004)",
    "nome": "Escola Municipal Rivadavia Corrêa",
    "endereco": "Av. Pres. Vargas, 1314",
    "bairro": "CIDADE NOVA",
    "cep": "20210-031",
    "email": "emrivacorrea@rioeduca.net",
    "telefone": "2253-8064",
    "lat": -22.9095024,
    "lng": -43.20400069999999,
    "id_setor": "1602"
  },
  {
    "sigla": "E/CRE(01.02.005)",
    "nome": "Escola Municipal Calouste Gulbenkian",
    "endereco": "Rua Prof. Clementino Fraga,  S/Nº",
    "bairro": "Centro",
    "cep": "20230-250",
    "email": "emcgulbenkian@rioeduca.net",
    "telefone": "2224-4054",
    "lat": -22.9082901,
    "lng": -43.1950426,
    "id_setor": "1602"
  },
  {
    "sigla": "E/CRE(01.02.006)",
    "nome": "Escola Municipal Guatemala",
    "endereco": "Praça Presidente Aguirre  Cerda 55",
    "bairro": "Centro",
    "cep": "20240-200",
    "email": "emguatemala@rioeduca.net",
    "telefone": "2224-7687",
    "lat": -22.9177578,
    "lng": -43.1885456,
    "id_setor": "1602"
  },
  {
    "sigla": "E/CRE(01.02.007)",
    "nome": "Escola Municipal Orlando Villas Boas",
    "endereco": "Rua André Cavalcanti  103-109",
    "bairro": "Centro",
    "cep": "20231-050",
    "email": "emovboas@rioeduca.net",
    "telefone": "2224-7622",
    "lat": -22.9167821,
    "lng": -43.1859455,
    "id_setor": "1602"
  },
  {
    "sigla": "E/CRE(01.02.501)",
    "nome": "Escola Municipal Tia Ciata",
    "endereco": "Avenida Presidente Vargas S/Nº",
    "bairro": "Centro",
    "cep": "20071-003",
    "email": "emtciata@rioeduca.net",
    "telefone": "2224-7649",
    "lat": -22.9036894,
    "lng": -43.1873466,
    "id_setor": "1602"
  },
  {
    "sigla": "E/CRE(01.02.502)",
    "nome": "Ciep Avenida dos Desfiles I",
    "endereco": "Avenida Salvador De Sá S/N.° setor 13",
    "bairro": "Cidade Nova",
    "cep": "20211-260",
    "email": "ciepdesfiles502@rioeduca.net",
    "telefone": "2293-9596 2293-0004",
    "lat": -22.9123607,
    "lng": -43.1991319,
    "id_setor": "1602"
  },
  {
    "sigla": "E/CRE(01.02.503)",
    "nome": "Ciep Avenida dos Desfiles II",
    "endereco": "Avenida Salvador de Sá S/N.º setor 13",
    "bairro": "Cidade Nova",
    "cep": "20211-260",
    "email": "ciepdesfiles503@rioeduca.net",
    "telefone": "2293-9546 2213-5833",
    "lat": -22.9123607,
    "lng": -43.1991319,
    "id_setor": "1602"
  },
  {
    "sigla": "E/CRE(01.02.504)",
    "nome": "Ciep Avenida dos Desfiles",
    "endereco": "Avenida Salvador de Sá s/n.º Setor 12",
    "bairro": "Cidade Nova",
    "cep": "20211-260",
    "email": "ciepdesfiles504@rioeduca.net",
    "telefone": "2213-5912 2293-0077",
    "lat": -22.9123607,
    "lng": -43.1991319,
    "id_setor": "1602"
  },
  {
    "sigla": "E/CRE(01.02.505)",
    "nome": "Ciep José Pedro Varela",
    "endereco": "Rua do Lavradio 133",
    "bairro": "Centro",
    "cep": "20230-070",
    "email": "ciepjvarela@rioeduca.net",
    "telefone": "2262-1075",
    "lat": -22.9112155,
    "lng": -43.1820943,
    "id_setor": "1602"
  },
  {
    "sigla": "E/CRE(01.02.601)",
    "nome": "Creche Municipal Sempre Vida Santo Antônio de Pádua",
    "endereco": "Rua Laurindo Rabelo  537 São Carlos",
    "bairro": "Estácio",
    "cep": "20250-150",
    "email": "cmsvpadua@rioeduca.net",
    "telefone": "2293-3201 9295-1573",
    "lat": -22.9190523,
    "lng": -43.2028992,
    "id_setor": "1602"
  },
  {
    "sigla": "E/CRE(01.02.602)",
    "nome": "Creche Municipal Ana Maria da Cruz Silva",
    "endereco": "Rua Salvador de Sá S/N° Setor  12",
    "bairro": "Cidade Nova",
    "cep": "20211-260",
    "email": "cmanasilva@rioeduca.net",
    "telefone": "2213-5932",
    "lat": -22.9123607,
    "lng": -43.1991319,
    "id_setor": "1602"
  },
  {
    "sigla": "E/CRE(01.02.604)",
    "nome": "Creche Municipal Arco-Íris",
    "endereco": "Rua Do Lavradio,  33",
    "bairro": "Centro",
    "cep": "20230-070",
    "email": "cmarcoiris@rioeduca.net",
    "telefone": "2215-3595 2224-7509",
    "lat": -22.9110435,
    "lng": -43.18182940000001,
    "id_setor": "1602"
  },
  {
    "sigla": "E/CRE(01.02.605)",
    "nome": "Creche Municipal Aldeia dos Curumins",
    "endereco": "Rua André Cavalcanti 103/109",
    "bairro": "Centro",
    "cep": "20231-050",
    "email": "cmcurumins@rioeduca.net",
    "telefone": "2224-7032",
    "lat": -22.916728,
    "lng": -43.18602,
    "id_setor": "1602"
  },
  {
    "sigla": "E/CRE(01.02.606)",
    "nome": "Creche Municipal George Savalla Gomes - Palhaço Carequinha",
    "endereco": "Rua Gustavo Barroso s/nº",
    "bairro": "Centro",
    "cep": "20230-220",
    "email": "cmcarequinha@rioeduca.net",
    "telefone": "2224-7637",
    "lat": -22.9069377,
    "lng": -43.1939054,
    "id_setor": "1602"
  },
  {
    "sigla": "E/CRE(01.02.802)",
    "nome": "Espaço de Desenvolvimento Infantil Campos Salles",
    "endereco": "Praça Da República s/nº",
    "bairro": "Centro",
    "cep": "20211-350",
    "email": "emcsales@rioeduca.net",
    "telefone": "2224-7576 2224-7466",
    "lat": -22.9068124,
    "lng": -43.1889597,
    "id_setor": "1602"
  },
  {
    "sigla": "E/CRE(01.02.803)",
    "nome": "Espaço de Desenvolvimento Infantil Rachel de Queiroz",
    "endereco": "Avenida Presidente Vargas S/N°",
    "bairro": "Centro",
    "cep": "20210-030",
    "email": "emrqueiroz@rioeduca.net",
    "telefone": "2224-7450",
    "lat": -22.9031847,
    "lng": -43.1851799,
    "id_setor": "1602"
  },
  {
    "sigla": "E/CRE(01.03.001)",
    "nome": "Escola Municipal Estados Unidos",
    "endereco": "Rua Itapiru, 453",
    "bairro": "Catumbi",
    "cep": "20251-031",
    "email": "emeunidos@rioeduca.net",
    "telefone": "2213-5658",
    "lat": -22.9216674,
    "lng": -43.19635539999999,
    "id_setor": "1602"
  },
  {
    "sigla": "E/CRE(01.03.003)",
    "nome": "Escola Municipal Mem de Sá",
    "endereco": "Rua Campos Da Paz 218",
    "bairro": "Rio Comprido",
    "cep": "20250-460",
    "email": "emmsa@rioeduca.net",
    "telefone": "2293-4141",
    "lat": -22.924192,
    "lng": -43.20440929999999,
    "id_setor": "1602"
  },
  {
    "sigla": "E/CRE(01.03.004)",
    "nome": "Escola Municipal Pereira Passos",
    "endereco": "Praça Condessa Paulo de Frontin 45",
    "bairro": "Rio Comprido",
    "cep": "20261-190",
    "email": "emppassos@rioeduca.net",
    "telefone": "2273-5599",
    "lat": -22.9243778,
    "lng": -43.2083438,
    "id_setor": "1602"
  },
  {
    "sigla": "E/CRE(01.03.005)",
    "nome": "Escola Municipal Mario Claudio",
    "endereco": "Rua Haddock Lobo 148",
    "bairro": "Rio Comprido",
    "cep": "20260-132",
    "email": "emclaudio@rioeduca.net",
    "telefone": "2293-2996",
    "lat": -22.9172878,
    "lng": -43.2109386,
    "id_setor": "1602"
  },
  {
    "sigla": "E/CRE(01.03.006)",
    "nome": "Escola Municipal Jenny Gomes",
    "endereco": "Avenida Paulo De Frontin, 452",
    "bairro": "PRAÇA DA BANDEIRA",
    "cep": "20261-242",
    "email": "emjgomes@rioeduca.net",
    "telefone": "2273-5299",
    "lat": -22.922913,
    "lng": -43.2100331,
    "id_setor": "1602"
  },
  {
    "sigla": "E/CRE(01.03.501)",
    "nome": "Escola Municipal do Catumbi",
    "endereco": "Rua Dom Pedro Mascarenhas 23",
    "bairro": "Catumbi",
    "cep": "20251-610",
    "email": "emcatumbi@rioeduca.net",
    "telefone": "2213-5611 2293-0367",
    "lat": -22.9157546,
    "lng": -43.194745,
    "id_setor": "1602"
  },
  {
    "sigla": "E/CRE(01.03.502)",
    "nome": "Escola Municipal Canadá",
    "endereco": "Rua São Carlos 181",
    "bairro": "Estácio",
    "cep": "20250-052",
    "email": "emcanada@rioeduca.net",
    "telefone": "2273-1599",
    "lat": -22.9154871,
    "lng": -43.2042976,
    "id_setor": "1602"
  },
  {
    "sigla": "E/CRE(01.03.601)",
    "nome": "Creche Municipal Espaço Livre da Criança",
    "endereco": "Rua Laurindo Rabelo 184 São Carlos",
    "bairro": "Estácio",
    "cep": "20250-150",
    "email": "cmlcrianca@rioeduca.net",
    "telefone": "3971-3893 2293-0441",
    "lat": -22.9161675,
    "lng": -43.203373,
    "id_setor": "1602"
  },
  {
    "sigla": "E/CRE(01.03.602)",
    "nome": "Creche Municipal Direitos Humanos",
    "endereco": "Rua Barão De Petrópolis  724",
    "bairro": "Rio Comprido",
    "cep": "20251-062",
    "email": "cmhumanos@rioeduca.net",
    "telefone": "2273-6570 2293-0100",
    "lat": -22.930985,
    "lng": -43.201678,
    "id_setor": "1602"
  },
  {
    "sigla": "E/CRE(01.03.604)",
    "nome": "Creche Municipal Sonho Infantil",
    "endereco": "Rua Infante de Sagres 275 fundos",
    "bairro": "Rio Comprido",
    "cep": "20261-160",
    "email": "cminfantil@rioeduca.net",
    "telefone": "2273-4219",
    "lat": -22.9281539,
    "lng": -43.2138065,
    "id_setor": "1602"
  },
  {
    "sigla": "E/CRE(01.03.605)",
    "nome": "Creche Municipal Brincadeiras de Criança",
    "endereco": "Rua Sebastião Rocha s/n.º",
    "bairro": "Catumbi",
    "cep": "20211-320",
    "email": "cmbrincadeiras@rioeduca.net",
    "telefone": "3971-4919 2239-0367",
    "lat": -22.9188695,
    "lng": -43.1979338,
    "id_setor": "1602"
  },
  {
    "sigla": "E/CRE(01.03.606)",
    "nome": "Creche Municipal Campos da Paz",
    "endereco": "Rua Azevedo Lima s/nº",
    "bairro": "Rio Comprido",
    "cep": "20250-500",
    "email": "cmcpaz@rioeduca.net",
    "telefone": "2213-5813",
    "lat": -22.9223942,
    "lng": -43.2057186,
    "id_setor": "1602"
  },
  {
    "sigla": "E/CRE(01.03.607)",
    "nome": "Creche Municipal Estácio de Sá",
    "endereco": "Rua Estácio de Sá 51",
    "bairro": "Estácio",
    "cep": "20211-270",
    "email": "cmestacio@rioeduca.net",
    "telefone": "2518-0908 2293-0229",
    "lat": -22.9139615,
    "lng": -43.2039005,
    "id_setor": "1602"
  },
  {
    "sigla": "E/CRE(01.03.801)",
    "nome": "Espaço de Desenvolvimento Infantil Professora Simone Sousa Pimentel",
    "endereco": "Rua Infante de Sagres 121",
    "bairro": "Rio Comprido",
    "cep": "20261-160",
    "email": "edisimonepimentel@rioeduca.net",
    "telefone": "2225-3059",
    "lat": -22.9277746,
    "lng": -43.2133034,
    "id_setor": "1602"
  },
  {
    "sigla": "E/CRE(01.03.802)",
    "nome": "Espaço de Desenvolvimento Infantil Lily Marinho",
    "endereco": "Rua 31 de março S/Nº",
    "bairro": "Catumbi",
    "cep": "20251-330",
    "email": "edihenrique@rioeduca.net",
    "telefone": "2273-8334",
    "lat": -22.9169853,
    "lng": -43.1942671,
    "id_setor": "1602"
  },
  {
    "sigla": "E/CRE(01.03.804)",
    "nome": "Espaço de Desenvolvimento Infantil Zélia Gattai Amado",
    "endereco": "Rua Caturama s/nº",
    "bairro": "Rio Comprido",
    "cep": "20251-070",
    "email": "edizgattai@rioeduca.net",
    "telefone": "2233-1322",
    "lat": -22.926886,
    "lng": -43.2004648,
    "id_setor": "1602"
  },
  {
    "sigla": "E/CRE(01.03.805)",
    "nome": "Espaço de Desenvolvimento Infantil Beatriz Vicência Bandeira Ryff",
    "endereco": "Rua Santos Rodrigues  263",
    "bairro": "Estácio",
    "cep": "20250-430",
    "email": "edibeatrizvbandeira@rioeduca.net",
    "telefone": "2224-0979",
    "lat": -22.9193114,
    "lng": -43.2046404,
    "id_setor": "1602"
  },
  {
    "sigla": "E/CRE(01.03.806)",
    "nome": "Espaço de Desenvolvimento Infantil Fundação Leão XIII",
    "endereco": "Rua Laurindo Rabelo (acesso pela Rua Carlos, S/N) 554",
    "bairro": "Estácio",
    "cep": "20250-150",
    "email": "emleaoxiii@rioeduca.net",
    "telefone": "2273-8591 2293-0310",
    "lat": -22.9171019,
    "lng": -43.2034514,
    "id_setor": "1602"
  },
  {
    "sigla": "E/CRE(01.03.807)",
    "nome": "Espaço de Desenvolvimento Infantil Maria Luiza Nobre - Tia Luizinha",
    "endereco": "Rua Itapiru 527 fundos",
    "bairro": "Catumbi",
    "cep": "20251-031",
    "email": "edimnobre@rioeduca.net",
    "telefone": "2233-8426",
    "lat": -22.9223119,
    "lng": -43.1965025,
    "id_setor": "1602"
  },
  {
    "sigla": "E/CRE(01.07.001)",
    "nome": "Escola Municipal Gonçalves Dias",
    "endereco": "Campo  São Cristovão 115",
    "bairro": "São Cristóvão",
    "cep": "20921-440",
    "email": "emgdias@rioeduca.net",
    "telefone": "3895-8630",
    "lat": -22.8993212,
    "lng": -43.2203266,
    "id_setor": "1602"
  },
  {
    "sigla": "E/CRE(01.07.002)",
    "nome": "Escola Municipal Nilo Peçanha",
    "endereco": "Avenida Pedro II 398",
    "bairro": "São Cristóvão",
    "cep": "20941-070",
    "email": "emnpecanha@rioeduca.net",
    "telefone": "3895-8631",
    "lat": -22.9043014,
    "lng": -43.2197744,
    "id_setor": "1602"
  },
  {
    "sigla": "E/CRE(01.07.003)",
    "nome": "Escola Municipal Portugal",
    "endereco": "Avenida Do Exército  175",
    "bairro": "São Cristóvão",
    "cep": "20910-025",
    "email": "emportugal@rioeduca.net",
    "telefone": "3895-8632",
    "lat": -22.9026436,
    "lng": -43.225144,
    "id_setor": "1602"
  },
  {
    "sigla": "E/CRE(01.07.004)",
    "nome": "Escola Municipal Floriano Peixoto",
    "endereco": "Praça Argentina 20",
    "bairro": "São Cristóvão",
    "cep": "20920-050",
    "email": "emfpeixoto@rioeduca.net",
    "telefone": "3895-8634",
    "lat": -22.89765,
    "lng": -43.2274729,
    "id_setor": "1602"
  },
  {
    "sigla": "E/CRE(01.07.005)",
    "nome": "Escola Municipal João de Camargo",
    "endereco": "Rua Ricardo Machado 633",
    "bairro": "SÃO CRISTOVÃO",
    "cep": "20921-270",
    "email": "emjcamargo@rioeduca.net",
    "telefone": "3895-8637",
    "lat": -22.8905212,
    "lng": -43.2301575,
    "id_setor": "1602"
  },
  {
    "sigla": "E/CRE(01.07.006)",
    "nome": "Escola Municipal Marechal Trompowsky",
    "endereco": "Avenida Bartolomeu De Gusmão 1.100 Fundos",
    "bairro": "São Cristóvão",
    "cep": "20941-160",
    "email": "emmtrompowsky@rioeduca.net",
    "telefone": "2214-1638 2284-1830",
    "lat": -22.9092544,
    "lng": -43.2263064,
    "id_setor": "1602"
  },
  {
    "sigla": "E/CRE(01.07.007)",
    "nome": "Escola Municipal Humberto de Campos",
    "endereco": "Travessa Saião Lobato 40",
    "bairro": "Mangueira",
    "cep": "20943-135",
    "email": "emhcampos@rioeduca.net",
    "telefone": "2214-1664",
    "lat": -22.90428,
    "lng": -43.2389277,
    "id_setor": "1602"
  },
  {
    "sigla": "E/CRE(01.07.008)",
    "nome": "Escola Municipal José Moreira da Silva",
    "endereco": "Rua dos Eucalíptos S/N.°",
    "bairro": "São Cristóvão",
    "cep": "20911-060",
    "email": "emjmsilva@rioeduca.net",
    "telefone": "3895-8638 3895-8639",
    "lat": -22.9240027,
    "lng": -43.3464337,
    "id_setor": "1602"
  },
  {
    "sigla": "E/CRE(01.07.009)",
    "nome": "Escola Municipal Uruguai",
    "endereco": "Rua Ana Néri 192",
    "bairro": "Benfica",
    "cep": "20911-442",
    "email": "emuruguai@rioeduca.net",
    "telefone": "2589-3478 3895-8641",
    "lat": -22.8988152,
    "lng": -43.2377566,
    "id_setor": "1602"
  },
  {
    "sigla": "E/CRE(01.07.011)",
    "nome": "Escola Municipal Cardeal Leme",
    "endereco": "Rua Ébano 205",
    "bairro": "Benfica",
    "cep": "20930-060",
    "email": "emcleme@rioeduca.net",
    "telefone": "3895-8642 3895-8643",
    "lat": -22.8892322,
    "lng": -43.2358646,
    "id_setor": "1602"
  },
  {
    "sigla": "E/CRE(01.07.012)",
    "nome": "Escola Municipal Gonzaga da Gama Filho",
    "endereco": "Rua General Gustavo Cordeiro De Farias 578",
    "bairro": "Benfica",
    "cep": "20910-220",
    "email": "emgfilho@rioeduca.net",
    "telefone": "3895-8644",
    "lat": -22.8979431,
    "lng": -43.2377833,
    "id_setor": "1602"
  },
  {
    "sigla": "E/CRE(01.07.013)",
    "nome": "Escola Municipal Alice do Amaral Peixoto",
    "endereco": "Rua Ébano 187",
    "bairro": "Benfica",
    "cep": "20930-060",
    "email": "emapeixoto@rioeduca.net",
    "telefone": "3895-8645",
    "lat": -22.8895522,
    "lng": -43.2362425,
    "id_setor": "1602"
  },
  {
    "sigla": "E/CRE(01.07.016)",
    "nome": "Escola Municipal Josué de Sousa Montello",
    "endereco": "Campo de São Cristovão 115",
    "bairro": "São Cristovão",
    "cep": "20921-440",
    "email": "emmontello@rioeduca.net",
    "telefone": "2233-5666",
    "lat": -22.8993212,
    "lng": -43.2203266,
    "id_setor": "1602"
  },
  {
    "sigla": "E/CRE(01.07.017)",
    "nome": "Escola Municipal Neuma Gonçalves da Silva - Dona Neuma",
    "endereco": "Rua General Gustavo Cordeiro de Farias 578",
    "bairro": "Benfica",
    "cep": "20910-220",
    "email": "",
    "telefone": "",
    "lat": -22.8979431,
    "lng": -43.2377833,
    "id_setor": "1602"
  },
  {
    "sigla": "E/CRE(01.07.501)",
    "nome": "Escola Municipal Edmundo Bittencourt",
    "endereco": "Rua Lópes Trovão 287",
    "bairro": "Benfica",
    "cep": "20920-340",
    "email": "emeBitencourt@rioeduca.net",
    "telefone": "3895-8651 3895-2209",
    "lat": -22.8924766,
    "lng": -43.2340915,
    "id_setor": "1602"
  },
  {
    "sigla": "E/CRE(01.07.502)",
    "nome": "Escola Municipal Mestre Waldemiro",
    "endereco": "Avenida Bartolomeu  de Gusmão 850 Fundos",
    "bairro": "São Cristóvão",
    "cep": "20941-160",
    "email": "emwaldemiro@rioeduca.net",
    "telefone": "2254-0815 2254-3144 9299-6342",
    "lat": -22.9073721,
    "lng": -43.2299308,
    "id_setor": "1602"
  },
  {
    "sigla": "E/CRE(01.07.601)",
    "nome": "Creche Municipal Adalberto Ismael de Souza",
    "endereco": "Av. Bartolomeu De Gusmão 1.100",
    "bairro": "São Cristóvão",
    "cep": "20941-160",
    "email": "cmadalberto@rioeduca.net",
    "telefone": "2264-5470",
    "lat": -22.9092544,
    "lng": -43.2263064,
    "id_setor": "1602"
  },
  {
    "sigla": "E/CRE(01.07.602)",
    "nome": "Creche Municipal Deputado Luiz Eduardo de Magalhães",
    "endereco": "Rua São Luís Gonzaga 1.486 Tuiti",
    "bairro": "São Cristóvão",
    "cep": "20910-062",
    "email": "cmmagalhaes@rioeduca.net",
    "telefone": "3895-9428",
    "lat": -22.8998333,
    "lng": -43.2230858,
    "id_setor": "1602"
  },
  {
    "sigla": "E/CRE(01.07.603)",
    "nome": "Creche Municipal Vovó Lucíola",
    "endereco": "Rua Visconde De Niterói,  1.098 Trav. Olaria s/n",
    "bairro": "Mangueira",
    "cep": "20943-001",
    "email": "cmvluciola@rioeduca.net",
    "telefone": "2204-0418 2254-1304",
    "lat": -22.9041737,
    "lng": -43.2405349,
    "id_setor": "1602"
  },
  {
    "sigla": "E/CRE(01.07.604)",
    "nome": "Creche Municipal Homero José dos Santos",
    "endereco": "Rua Icaraí s/n°",
    "bairro": "Mangueira",
    "cep": "20941-025",
    "email": "cmhsantos@rioeduca.net",
    "telefone": "3895-8653 3895-8648",
    "lat": -22.9040644,
    "lng": -43.2371034,
    "id_setor": "1602"
  },
  {
    "sigla": "E/CRE(01.07.605)",
    "nome": "Creche Municipal Eduardo Moreira dos Santos",
    "endereco": "Rua Jupará   ( Morro dos Telégrafos ) 98",
    "bairro": "Mangueira",
    "cep": "20911-060",
    "email": "cmesantos@rioeduca.net",
    "telefone": "3895-2939 3878-2019",
    "lat": -22.9010043,
    "lng": -43.2374047,
    "id_setor": "1602"
  },
  {
    "sigla": "E/CRE(01.07.606)",
    "nome": "Creche Municipal Francisco Alves",
    "endereco": "Rua Carmela Dutra 01",
    "bairro": "São Cristovão",
    "cep": "20921-240",
    "email": "cmfalves@rioeduca.net",
    "telefone": "3895-8657 3895-8652",
    "lat": -22.924254,
    "lng": -43.2268325,
    "id_setor": "1602"
  },
  {
    "sigla": "E/CRE(01.07.607)",
    "nome": "Creche Municipal Nação Mangueirense",
    "endereco": "Rua Visconde De Niterói      774",
    "bairro": "Mangueira",
    "cep": "20943-001",
    "email": "cmnmangueirense@rioeduca.net",
    "telefone": "2234-0161 3895-8650",
    "lat": -22.9056818,
    "lng": -43.23940349999999,
    "id_setor": "1602"
  },
  {
    "sigla": "E/CRE(01.07.608)",
    "nome": "Creche Municipal Samora Machel",
    "endereco": "Rua Leopoldo Bulhões 700",
    "bairro": "Benfica",
    "cep": "20911-300",
    "email": "cmsmachel@rioeduca.net",
    "telefone": "3895-8654",
    "lat": -22.8841211,
    "lng": -43.2487833,
    "id_setor": "1602"
  },
  {
    "sigla": "E/CRE(01.07.609)",
    "nome": "Creche Municipal Vasquinho",
    "endereco": "Rua Santo Antonio s/nº",
    "bairro": "São Cristóvão",
    "cep": "20921-180",
    "email": "cmvasquinho@rioeduca.net",
    "telefone": "3895-8655",
    "lat": -22.9019372,
    "lng": -43.708474,
    "id_setor": "1602"
  },
  {
    "sigla": "E/CRE(01.07.610)",
    "nome": "Creche Municipal Arara Azul",
    "endereco": "Rua Ademar Cerpa s/n.º",
    "bairro": "Benfica",
    "cep": "20911-400",
    "email": "cmarara@rioeduca.net",
    "telefone": "3895-8656 3895-8646",
    "lat": -22.8893855,
    "lng": -43.2424886,
    "id_setor": "1602"
  },
  {
    "sigla": "E/CRE(01.07.801)",
    "nome": "Espaço de Desenvolvimento Infantil Professora Dayse Malagole",
    "endereco": "Rua Ricardo Machado  S/Nº",
    "bairro": "São Cristovão",
    "cep": "20921-270",
    "email": "edidmalagole@rioeduca.net",
    "telefone": "2233-2258",
    "lat": -22.8874411,
    "lng": -43.2243878,
    "id_setor": "1602"
  },
  {
    "sigla": "E/CRE(01.07.802)",
    "nome": "Espaço de Desenvolvimento Infantil Morro dos Telégrafos",
    "endereco": "Rua Jupará 91",
    "bairro": "Mangueira",
    "cep": "20911-060",
    "email": "ccmtelegrafos@rioeduca.net",
    "telefone": "3895-8649 1",
    "lat": -22.9004453,
    "lng": -43.2366806,
    "id_setor": "1602"
  },
  {
    "sigla": "E/CRE(01.07.803)",
    "nome": "Espaço de Desenvolvimento Infantil Dois de Julho",
    "endereco": "Rua Ferreira de Araújo 119",
    "bairro": "São Cristóvão",
    "cep": "20920-350",
    "email": "emdjulho@rioeduca.net",
    "telefone": "3895-8647",
    "lat": -22.8915909,
    "lng": -43.23306789999999,
    "id_setor": "1602"
  },
  {
    "sigla": "E/CRE(01.21.001)",
    "nome": "Escola Municipal Joaquim Manuel de Macedo",
    "endereco": "Rua Rua Tomas Cerqueira  S/Nº",
    "bairro": "Paquetá",
    "cep": "20397-070",
    "email": "emjmacedo@rioeduca.net",
    "telefone": "3397-0120",
    "lat": -22.7526213,
    "lng": -43.1083241,
    "id_setor": "1602"
  },
  {
    "sigla": "E/CRE(01.21.002)",
    "nome": "Escola Municipal Pedro Bruno",
    "endereco": "Rua Padre Juvenal 74",
    "bairro": "Paquetá",
    "cep": "20397-070",
    "email": "empbruno@rioeduca.net",
    "telefone": "3397-0275",
    "lat": -22.753498,
    "lng": -43.1098401,
    "id_setor": "1602"
  },
  {
    "sigla": "E/CRE(01.23.001)",
    "nome": "Escola Municipal Machado de Assis",
    "endereco": "Rua Dias De Barros 50",
    "bairro": "Santa Teresa",
    "cep": "20241-020",
    "email": "emmassis@rioeduca.net",
    "telefone": "2224-7658 2224-7037",
    "lat": -22.9180885,
    "lng": -43.1821177,
    "id_setor": "1602"
  },
  {
    "sigla": "E/CRE(01.23.002)",
    "nome": "Escola Municipal Santa Catarina",
    "endereco": "Rua Eduardo Santos 38",
    "bairro": "Santa Teresa",
    "cep": "20251-460",
    "email": "emscatarina@rioeduca.net",
    "telefone": "2224-7685",
    "lat": -22.9155411,
    "lng": -43.1915139,
    "id_setor": "1602"
  },
  {
    "sigla": "E/CRE(01.23.003)",
    "nome": "Escola Municipal Julia Lopes de Almeida",
    "endereco": "Rua Almirante Alexandrino 3466",
    "bairro": "Santa Teresa",
    "cep": "20241-266",
    "email": "emjalmeida@rioeduca.net",
    "telefone": "22252412",
    "lat": -22.9365442,
    "lng": -43.2043517,
    "id_setor": "1602"
  },
  {
    "sigla": "E/CRE(01.23.004)",
    "nome": "Escola Municipal Juan Antonio Samaranch",
    "endereco": "Rua Marcel Proust 201",
    "bairro": "Santa Teresa",
    "cep": "20251-130",
    "email": "emsamaranch@rioeduca.net",
    "telefone": "3972-0916",
    "lat": -22.9310083,
    "lng": -43.19839839999999,
    "id_setor": "1602"
  },
  {
    "sigla": "E/CRE(01.23.601)",
    "nome": "Creche Municipal José Marinho de Oliveira",
    "endereco": "Ladeira Laureano s/nº",
    "bairro": "Santa Teresa - Morro dos Prazeres",
    "cep": "20241-410",
    "email": "cmjoliveira@rioeduca.net",
    "telefone": "2233-2279 3895-8636",
    "lat": -22.9347222,
    "lng": -43.2047222,
    "id_setor": "1602"
  },
  {
    "sigla": "E/CRE(01.23.603)",
    "nome": "Creche Municipal Fallet",
    "endereco": "Rua Fallet 302",
    "bairro": "Santa Teresa",
    "cep": "20241-260",
    "email": "cmfallet@rioeduca.net",
    "telefone": "2504-7015",
    "lat": -22.927358,
    "lng": -43.1956312,
    "id_setor": "1602"
  },
  {
    "sigla": "E/CRE(01.23.701)",
    "nome": "Centro de Desenvolvimento de Educação Integrada Amalia Fernandez Conde",
    "endereco": "Rua Almirante Alexandrino 3286",
    "bairro": "Santa Teresa",
    "cep": "20241-262",
    "email": "cdeiconde@rioeduca.net",
    "telefone": "2205-7897 2205-7747",
    "lat": -22.9348808,
    "lng": -43.2022412,
    "id_setor": "1602"
  },
  {
    "sigla": "E/CRE(01.23.801)",
    "nome": "Espaço de Desenvolvimento Infantil Heloísa Marinho",
    "endereco": "Rua Alm.Alexandrino  2235",
    "bairro": "Santa Teresa",
    "cep": "20241-263",
    "email": "edimarinho@rioeduca.net",
    "telefone": "22245920",
    "lat": -22.9295643,
    "lng": -43.1949986,
    "id_setor": "1602"
  },
  {
    "sigla": "E/CRE(02.04.001)",
    "nome": "Escola Municipal Deodoro",
    "endereco": "Rua Da Glória 64",
    "bairro": "Glória",
    "cep": "20241-180",
    "email": "emdeodoro@rioeduca.net",
    "telefone": "2224-7636",
    "lat": -22.91775,
    "lng": -43.1772134,
    "id_setor": "1603"
  },
  {
    "sigla": "E/CRE(02.04.002)",
    "nome": "Escola Municipal Maria Leopoldina",
    "endereco": "Rua Santo Amaro 133",
    "bairro": "Glória",
    "cep": "22211-230",
    "email": "emleopoldina@rioeduca.net",
    "telefone": "2224-8133 2224-8082",
    "lat": -22.9229541,
    "lng": -43.1817916,
    "id_setor": "1603"
  },
  {
    "sigla": "E/CRE(02.04.003)",
    "nome": "Escola Municipal Alberto Barth",
    "endereco": "Avenida Oswaldo Cruz 124",
    "bairro": "Flamengo",
    "cep": "22250-060",
    "email": "embarth@rioeduca.net",
    "telefone": "2552-2387 2552-7799",
    "lat": -22.9407737,
    "lng": -43.17649,
    "id_setor": "1603"
  },
  {
    "sigla": "E/CRE(02.04.004)",
    "nome": "Escola Municipal Educandário Romão de Mattos Duarte",
    "endereco": "Rua Paulo VI 60",
    "bairro": "Flamengo",
    "cep": "22230-080",
    "email": "ccromao@rioeduca.net",
    "telefone": "2205-8298 2245-1505",
    "lat": -22.9362316,
    "lng": -43.1788026,
    "id_setor": "1603"
  },
  {
    "sigla": "E/CRE(02.04.005)",
    "nome": "Escola Municipal José de Alencar",
    "endereco": "Rua das Laranjeiras 397",
    "bairro": "Laranjeiras",
    "cep": "22240-005",
    "email": "emalencar@rioeduca.net",
    "telefone": "2265-8836 2245-5886 2225-6362",
    "lat": -22.9369677,
    "lng": -43.1901086,
    "id_setor": "1603"
  },
  {
    "sigla": "E/CRE(02.04.006)",
    "nome": "Escola Municipal Anne Frank",
    "endereco": "Rua Pinheiro Machado 190",
    "bairro": "Laranjeiras",
    "cep": "22231-090",
    "email": "emfrank@rioeduca.net",
    "telefone": "2552-6492 2558-7898",
    "lat": -22.9388202,
    "lng": -43.1835672,
    "id_setor": "1603"
  },
  {
    "sigla": "E/CRE(02.04.007)",
    "nome": "Escola Municipal Albert Schweitzer",
    "endereco": "Rua General Glicério 186",
    "bairro": "Laranjeiras",
    "cep": "22245-120",
    "email": "emschweitzer@rioeduca.net",
    "telefone": "2225-1692 2245-5572",
    "lat": -22.9401422,
    "lng": -43.1919471,
    "id_setor": "1603"
  },
  {
    "sigla": "E/CRE(02.04.008)",
    "nome": "Escola Municipal Vital Brasil",
    "endereco": "Rua Silveira Martins 80 Fundos",
    "bairro": "Flamengo",
    "cep": "22221-000",
    "email": "emvitalbrasil@rioeduca.net",
    "telefone": "2245-5651 2245-5761",
    "lat": -22.92545,
    "lng": -43.1758885,
    "id_setor": "1603"
  },
  {
    "sigla": "E/CRE(02.04.009)",
    "nome": "Escola Municipal Guararapes Cândido",
    "endereco": "Ladeira Dos Guararapes 292 Fundos",
    "bairro": "Cosme Velho",
    "cep": "22241-220",
    "email": "cccandido@rioeduca.net",
    "telefone": "2225-2688 2245-3081",
    "lat": -22.9439721,
    "lng": -43.20443179999999,
    "id_setor": "1603"
  },
  {
    "sigla": "E/CRE(02.04.010)",
    "nome": "Escola Municipal Francisco Alves",
    "endereco": "Travessa Pepe 77",
    "bairro": "Botafogo",
    "cep": "22290-020",
    "email": "emalves@rioeduca.net",
    "telefone": "2295-2399 2543-8524",
    "lat": -22.9540076,
    "lng": -43.1821699,
    "id_setor": "1603"
  },
  {
    "sigla": "E/CRE(02.04.011)",
    "nome": "Escola Municipal Joaquim Nabuco",
    "endereco": "Rua Dona Mariana 148",
    "bairro": "Botafogo",
    "cep": "22280-020",
    "email": "emnabuco@rioeduca.net",
    "telefone": "2535-7472",
    "lat": -22.9544286,
    "lng": -43.18823219999999,
    "id_setor": "1603"
  },
  {
    "sigla": "E/CRE(02.04.012)",
    "nome": "Escola Municipal México",
    "endereco": "Rua da Matriz 67",
    "bairro": "Botafogo",
    "cep": "22260-100",
    "email": "emmexico@rioeduca.net",
    "telefone": "2538-0423 2535-7973 2535-7296",
    "lat": -22.9525345,
    "lng": -43.1917409,
    "id_setor": "1603"
  },
  {
    "sigla": "E/CRE(02.04.014)",
    "nome": "Escola Municipal Presidente Arthur da Costa e Silva",
    "endereco": "Rua Assunção 257",
    "bairro": "Botafogo",
    "cep": "22251-030",
    "email": "emacsilva@rioeduca.net",
    "telefone": "2535-7877 2535-6939 2535-7635",
    "lat": -22.9455021,
    "lng": -43.1866345,
    "id_setor": "1603"
  },
  {
    "sigla": "E/CRE(02.04.015)",
    "nome": "Escola Municipal João Saldanha",
    "endereco": "Rua Da Passagem 104",
    "bairro": "Botafogo",
    "cep": "22290-031",
    "email": "emjsaldanha@rioeduca.net",
    "telefone": "2543-8548 2295-2449",
    "lat": -22.9538367,
    "lng": -43.1817916,
    "id_setor": "1603"
  },
  {
    "sigla": "E/CRE(02.04.017)",
    "nome": "Escola Municipal Joaquim Abílio Borges",
    "endereco": "Rua Humaitá 19",
    "bairro": "Humaitá",
    "cep": "22261-001",
    "email": "emjborges@rioeduca.net",
    "telefone": "2535-7941 2535-7510 2535-7902",
    "lat": -22.9544049,
    "lng": -43.1971719,
    "id_setor": "1603"
  },
  {
    "sigla": "E/CRE(02.04.018)",
    "nome": "Escola Municipal Estácio de Sá",
    "endereco": "Praça Tenente-Coronel Siqueira 22",
    "bairro": "Urca",
    "cep": "22291-160",
    "email": "emsa@rioeduca.net",
    "telefone": "2295-6745 2543-8924",
    "lat": -22.9450361,
    "lng": -43.16035429999999,
    "id_setor": "1603"
  },
  {
    "sigla": "E/CRE(02.04.019)",
    "nome": "Escola Municipal Minas Gerais",
    "endereco": "Avenida Pasteur 433",
    "bairro": "Urca",
    "cep": "22290-255",
    "email": "emminasg@rioeduca.net",
    "telefone": "2295-1295 2543-5445",
    "lat": -22.9536707,
    "lng": -43.1688887,
    "id_setor": "1603"
  },
  {
    "sigla": "E/CRE(02.04.021)",
    "nome": "Escola Municipal Senador Corrêa",
    "endereco": "Rua Esteves Junior 42",
    "bairro": "Laranjeiras",
    "cep": "22231-160",
    "email": "emsenadorcorrea@rioeduca.net",
    "telefone": "2245-5666 2245-5560",
    "lat": -22.9337769,
    "lng": -43.1809971,
    "id_setor": "1603"
  },
  {
    "sigla": "E/CRE(02.04.501)",
    "nome": "Ciep Presidente Tancredo Neves",
    "endereco": "Rua do Catete 77",
    "bairro": "Catete",
    "cep": "22220-000",
    "email": "cieptneves@rioeduca.net",
    "telefone": "2205-8905 2245-5563",
    "lat": -22.9230608,
    "lng": -43.1768287,
    "id_setor": "1603"
  },
  {
    "sigla": "E/CRE(02.04.502)",
    "nome": "Ciep Presidente Agostinho Neto",
    "endereco": "Rua Visconde de Silva s/nº",
    "bairro": "Humaitá",
    "cep": "22271-043",
    "email": "ciepaneto@rioeduca.net",
    "telefone": "2535-7637",
    "lat": -22.9584578,
    "lng": -43.1979521,
    "id_setor": "1603"
  },
  {
    "sigla": "E/CRE(02.04.601)",
    "nome": "Creche Municipal Tia Amália",
    "endereco": "Ladeira Dos Guararapes 178 Morro dos Guarar",
    "bairro": "Cosme Velho",
    "cep": "22241-275",
    "email": "cmtamalia@rioeduca.net",
    "telefone": "2285-7540 2051-4638",
    "lat": -22.9429138,
    "lng": -43.2056098,
    "id_setor": "1603"
  },
  {
    "sigla": "E/CRE(02.04.602)",
    "nome": "Creche Municipal Aracy Guimarães Rosa",
    "endereco": "Rua Bento Lisboa 132",
    "bairro": "Catete",
    "cep": "22221-011",
    "email": "cmaracyrosa@rioeduca.net",
    "telefone": "2285-8796",
    "lat": -22.9289986,
    "lng": -43.1796364,
    "id_setor": "1603"
  },
  {
    "sigla": "E/CRE(02.04.801)",
    "nome": "Espaço de Desenvolvimento Infantil Marechal Hermes",
    "endereco": "Rua Capistrano De Abreu 1",
    "bairro": "Botafogo",
    "cep": "22271-000",
    "email": "emhermes@rioeduca.net",
    "telefone": "2535-7775",
    "lat": -22.954325,
    "lng": -43.195239,
    "id_setor": "1603"
  },
  {
    "sigla": "E/CRE(02.04.802)",
    "nome": "Espaço de Desenvolvimento Infantil Casa da Criança",
    "endereco": "Rua Fernandes Guimarães, 85",
    "bairro": "Botafogo",
    "cep": "22290-000",
    "email": "cccrianca@rioeduca.net",
    "telefone": "2295-3698 2543-8689",
    "lat": -22.9557716,
    "lng": -43.18152449999999,
    "id_setor": "1603"
  },
  {
    "sigla": "E/CRE(02.04.803)",
    "nome": "Espaço de Desenvolvimento Infantil Gabriela Mistral",
    "endereco": "Pça. Gal. Tibúrcio 145",
    "bairro": "Urca",
    "cep": "22290-270",
    "email": "emmistral@rioeduca.net",
    "telefone": "2295-5336 2543-8723",
    "lat": -22.9542059,
    "lng": -43.1644955,
    "id_setor": "1603"
  },
  {
    "sigla": "E/CRE(02.04.804)",
    "nome": "Espaço de Desenvolvimento Infantil Professora Sarita Konder",
    "endereco": "Rua Alice 1890",
    "bairro": "Laranjeiras",
    "cep": "22241-020",
    "email": "ediskonder@rioeduca.net",
    "telefone": "2552-7898",
    "lat": -22.9367843,
    "lng": -43.1972588,
    "id_setor": "1603"
  },
  {
    "sigla": "E/CRE(02.04.805)",
    "nome": "Espaço de Desenvolvimento Infantil Claudio Cavalcanti",
    "endereco": "Rua Sorocaba s/n",
    "bairro": "Botafogo",
    "cep": "22271-110",
    "email": "",
    "telefone": "2535-7864",
    "lat": -22.9536329,
    "lng": -43.1896746,
    "id_setor": "1603"
  },
  {
    "sigla": "E/CRE(02.04.806)",
    "nome": "Espaço de Desenvolvimento Infantil Irmã Margarita Alarcón",
    "endereco": "Rua Pereira da Silva 826",
    "bairro": "Laranjeiras",
    "cep": "22221-140",
    "email": "",
    "telefone": "3438-4421",
    "lat": -22.9303716,
    "lng": -43.1916672,
    "id_setor": "1603"
  },
  {
    "sigla": "E/CRE(02.05.001)",
    "nome": "Escola Municipal São Tomás de Aquino",
    "endereco": "Praça Almirante Júlio de Noronha 40",
    "bairro": "Leme",
    "cep": "22010-020",
    "email": "emtaquino@rioeduca.net",
    "telefone": "2275-1698 2543-8764",
    "lat": -22.961465,
    "lng": -43.1650772,
    "id_setor": "1603"
  },
  {
    "sigla": "E/CRE(02.05.003)",
    "nome": "Escola Municipal Doutor Cícero Penna",
    "endereco": "Avenida Atlântica  1976",
    "bairro": "Copacabana",
    "cep": "22021-001",
    "email": "emcpenna@rioeduca.net",
    "telefone": "2235-3124",
    "lat": -22.9686198,
    "lng": -43.1810974,
    "id_setor": "1603"
  },
  {
    "sigla": "E/CRE(02.05.004)",
    "nome": "Escola Municipal Doutor Cocio Barcellos",
    "endereco": "Rua Barão De Ipanema 34",
    "bairro": "Copacabana",
    "cep": "22050-032",
    "email": "embarcellos@rioeduca.net",
    "telefone": "2255-3499 2548-0475",
    "lat": -22.974827,
    "lng": -43.1890711,
    "id_setor": "1603"
  },
  {
    "sigla": "E/CRE(02.05.006)",
    "nome": "Escola Municipal Dom Aquino Corrêa",
    "endereco": "Rua Barata Ribeiro 204",
    "bairro": "Copacabana",
    "cep": "22011-002",
    "email": "emacorrea@rioeduca.net",
    "telefone": "2255-3572 2255-3551",
    "lat": -22.9650698,
    "lng": -43.1806267,
    "id_setor": "1603"
  },
  {
    "sigla": "E/CRE(02.05.007)",
    "nome": "Escola Municipal Penedo",
    "endereco": "Rua Raul Pompéia 183",
    "bairro": "Copacabana",
    "cep": "22080-001",
    "email": "empenedo@rioeduca.net",
    "telefone": "2035-5768",
    "lat": -22.982762,
    "lng": -43.1924028,
    "id_setor": "1603"
  },
  {
    "sigla": "E/CRE(02.05.008)",
    "nome": "Escola Municipal Roma",
    "endereco": "Avenida Nossa Senhora de Copacabana 165",
    "bairro": "Copacabana",
    "cep": "22020-002",
    "email": "emroma@rioeduca.net",
    "telefone": "2275-8398 2543-8891",
    "lat": -22.965096,
    "lng": -43.176223,
    "id_setor": "1603"
  },
  {
    "sigla": "E/CRE(02.05.009)",
    "nome": "Escola Municipal Alencastro Guimarães",
    "endereco": "Rua Tonelero 21",
    "bairro": "Copacabana",
    "cep": "22030-001",
    "email": "emaguimarae@rioeduca.net",
    "telefone": "2255-3325 2255-3030",
    "lat": -22.9654799,
    "lng": -43.1826745,
    "id_setor": "1603"
  },
  {
    "sigla": "E/CRE(02.05.601)",
    "nome": "Creche Municipal Irmãs Baptista",
    "endereco": "Rua Siqueira Campos 132",
    "bairro": "Copacabana",
    "cep": "22031-072",
    "email": "cmbatista@rioeduca.net",
    "telefone": "2255-4483",
    "lat": -22.9661958,
    "lng": -43.187098,
    "id_setor": "1603"
  },
  {
    "sigla": "E/CRE(02.05.602)",
    "nome": "Creche Muncipal Tia Sonia Crispiniano",
    "endereco": "Rua Euclides da Rocha 120",
    "bairro": "Copacabana - Morro dos Cabritos",
    "cep": "22031-100",
    "email": "cmcrispiniano@rioeduca.net",
    "telefone": "3208-4899",
    "lat": -22.9626001,
    "lng": -43.1924157,
    "id_setor": "1603"
  },
  {
    "sigla": "E/CRE(02.05.801)",
    "nome": "Espaço de Desenvolvimento Infantil Dona Marcela",
    "endereco": "Rua Gustavo Sampaio  164",
    "bairro": "Leme",
    "cep": "22010-010",
    "email": "edidonamarcela@rioeduca.net",
    "telefone": "2543-8876",
    "lat": -22.9617958,
    "lng": -43.1670153,
    "id_setor": "1603"
  },
  {
    "sigla": "E/CRE(02.05.802)",
    "nome": "Espaço de Desenvolvimento Infantil Porto Rico",
    "endereco": "Ladeira do Leme 371",
    "bairro": "Botafogo",
    "cep": "22290-130",
    "email": "emprico@rioeduca.net",
    "telefone": "2541-1247",
    "lat": -22.9612166,
    "lng": -43.1787555,
    "id_setor": "1603"
  },
  {
    "sigla": "E/CRE(02.06.001)",
    "nome": "Escola Municipal Presidente José Linhares",
    "endereco": "Rua Barão da Torre 90",
    "bairro": "Ipanema",
    "cep": "22411-000",
    "email": "emlinhares@rioeduca.net",
    "telefone": "2267-1062 2267-2649",
    "lat": -22.9833,
    "lng": -43.1990408,
    "id_setor": "1603"
  },
  {
    "sigla": "E/CRE(02.06.002)",
    "nome": "Escola Municipal Henrique Dodsworth",
    "endereco": "Avenida Epitácio Pessoa 474",
    "bairro": "Ipanema",
    "cep": "22410-090",
    "email": "emdodsworth@rioeduca.net",
    "telefone": "2274-4045 2274-5556",
    "lat": -22.9818881,
    "lng": -43.2135382,
    "id_setor": "1603"
  },
  {
    "sigla": "E/CRE(02.06.003)",
    "nome": "Escola Municipal Marília de Dirceu",
    "endereco": "Rua Jangadeiros 39",
    "bairro": "Ipanema",
    "cep": "22420-010",
    "email": "emdirceu@rioeduca.net",
    "telefone": "2267-2289 2267-7598",
    "lat": -22.9836389,
    "lng": -43.1968662,
    "id_setor": "1603"
  },
  {
    "sigla": "E/CRE(02.06.004)",
    "nome": "Escola Municipal Castelnuovo",
    "endereco": "Rua Francisco Otaviano 105",
    "bairro": "Copacabana",
    "cep": "22080-046",
    "email": "emcastelnuovo@rioeduca.net",
    "telefone": "2523-8947 2523-0911",
    "lat": -22.9874902,
    "lng": -43.19193,
    "id_setor": "1603"
  },
  {
    "sigla": "E/CRE(02.06.005)",
    "nome": "Escola Municipal Georg Pfisterer",
    "endereco": "Praça Nossa Senhora Auxiliadora S/N.°",
    "bairro": "Leblon",
    "cep": "22441-050",
    "email": "empfisterer@rioeduca.net",
    "telefone": "2274-4497 2274-7841",
    "lat": -22.9789253,
    "lng": -43.2223331,
    "id_setor": "1603"
  },
  {
    "sigla": "E/CRE(02.06.006)",
    "nome": "Escola Municipal Santos Anjos",
    "endereco": "Rua Humberto De Campos s/n°",
    "bairro": "Leblon",
    "cep": "22430-190",
    "email": "ccanjos@rioeduca.net",
    "telefone": "3875-3262 2512-5552",
    "lat": -22.9818924,
    "lng": -43.2204256,
    "id_setor": "1603"
  },
  {
    "sigla": "E/CRE(02.06.007)",
    "nome": "Escola Municipal Edna Poncioni Ferreira",
    "endereco": "Praça Benedito Cerqueira S/Nº",
    "bairro": "Lagoa",
    "cep": "22471-110",
    "email": "emferreira@rioeduca.net",
    "telefone": "2287-3245 2267-3048",
    "lat": -22.9762204,
    "lng": -43.1980052,
    "id_setor": "1603"
  },
  {
    "sigla": "E/CRE(02.06.008)",
    "nome": "Escola Municipal Pedro Ernesto",
    "endereco": "Rua Professor Abelardo Lobo 5",
    "bairro": "Lagoa",
    "cep": "22470-240",
    "email": "emernesto@rioeduca.net",
    "telefone": "2538-2789 2535-7461",
    "lat": -22.9611489,
    "lng": -43.2034143,
    "id_setor": "1603"
  },
  {
    "sigla": "E/CRE(02.06.010)",
    "nome": "Escola Municipal Capistrano de Abreu",
    "endereco": "Rua Pacheco Leão 984",
    "bairro": "Jardim Botânico",
    "cep": "22460-030",
    "email": "emabreu@rioeduca.net",
    "telefone": "2294-6498 2512-5553",
    "lat": -22.9654854,
    "lng": -43.2288346,
    "id_setor": "1603"
  },
  {
    "sigla": "E/CRE(02.06.011)",
    "nome": "Escola Municipal Shakespeare",
    "endereco": "Rua Jardim Botânico 563 fundos",
    "bairro": "Jardim Botânico",
    "cep": "22470-050",
    "email": "emshakespeare@rioeduca.net",
    "telefone": "2294-6149 2512-5663",
    "lat": -22.9633567,
    "lng": -43.2163177,
    "id_setor": "1603"
  },
  {
    "sigla": "E/CRE(02.06.012)",
    "nome": "Escola Municipal Camilo Castelo Branco",
    "endereco": "Rua Pacheco Leão 1004",
    "bairro": "Jardim Botânico",
    "cep": "22460-030",
    "email": "emcbranco@rioeduca.net",
    "telefone": "2294-9248 2512-5663",
    "lat": -22.9654324,
    "lng": -43.2292126,
    "id_setor": "1603"
  },
  {
    "sigla": "E/CRE(02.06.014)",
    "nome": "Escola Especial Municipal Marly Fróes Peixoto",
    "endereco": "Rua Jardim Botânico 660 ABBR",
    "bairro": "Jardim Botânico",
    "cep": "22461-000",
    "email": "empeixoto@rioeduca.net",
    "telefone": "2294-5495 2512-5666",
    "lat": -22.9634652,
    "lng": -43.2197776,
    "id_setor": "1603"
  },
  {
    "sigla": "E/CRE(02.06.015)",
    "nome": "Escola Municipal Manoel Cícero",
    "endereco": "Praça Santos Dumont 86",
    "bairro": "Gávea",
    "cep": "22470-060",
    "email": "emcicero@rioeduca.net",
    "telefone": "2274-5549",
    "lat": -22.9733251,
    "lng": -43.2269674,
    "id_setor": "1603"
  },
  {
    "sigla": "E/CRE(02.06.016)",
    "nome": "Escola Municipal Júlio de Castilhos",
    "endereco": "Praça Santos Dumont 96",
    "bairro": "Gávea",
    "cep": "22470-060",
    "email": "emcastilhos@rioeduca.net",
    "telefone": "2274-5496 2274-8535",
    "lat": -22.973513,
    "lng": -43.227121,
    "id_setor": "1603"
  },
  {
    "sigla": "E/CRE(02.06.017)",
    "nome": "Escola Municipal Artur Ramos",
    "endereco": "Rua Marquês de São Vicente 147",
    "bairro": "Gávea",
    "cep": "22451-041",
    "email": "emramos@rioeduca.net",
    "telefone": "2274-5698 2274-8916",
    "lat": -22.9774953,
    "lng": -43.2309135,
    "id_setor": "1603"
  },
  {
    "sigla": "E/CRE(02.06.018)",
    "nome": "Escola Municipal Luiz Delfino",
    "endereco": "Rua Marquês de São Vicente 238",
    "bairro": "Gávea",
    "cep": "22451-042",
    "email": "emdelfino@rioeduca.net",
    "telefone": "2274-4696 2274-8935",
    "lat": -22.9781102,
    "lng": -43.2338378,
    "id_setor": "1603"
  },
  {
    "sigla": "E/CRE(02.06.019)",
    "nome": "Escola Municipal Christiano Hamann",
    "endereco": "Rua Duque Estrada 20",
    "bairro": "Gávea",
    "cep": "22451-090",
    "email": "emhamann@rioeduca.net",
    "telefone": "2274-6899 2274-9101",
    "lat": -22.9778657,
    "lng": -43.2338993,
    "id_setor": "1603"
  },
  {
    "sigla": "E/CRE(02.06.020)",
    "nome": "Escola Municipal Desembargador Oscar Tenório",
    "endereco": "Rua Professor Manuel Ferreira 141",
    "bairro": "Gávea",
    "cep": "22451-030",
    "email": "emtenorio@rioeduca.net",
    "telefone": "2274-6446 2274-9374",
    "lat": -22.977454,
    "lng": -43.2279066,
    "id_setor": "1603"
  },
  {
    "sigla": "E/CRE(02.06.021)",
    "nome": "Escola Municipal Almirante Tamandaré",
    "endereco": "Avenida Presidente João Goulart 296",
    "bairro": "Vidigal",
    "cep": "22450-242",
    "email": "emtamandare@rioeduca.net",
    "telefone": "2274-9272 3114-1235",
    "lat": -22.9936603,
    "lng": -43.2356531,
    "id_setor": "1603"
  },
  {
    "sigla": "E/CRE(02.06.022)",
    "nome": "Escola Municipal Lúcia Miguel Pereira",
    "endereco": "Rua Martagão Gesteira  S/N°",
    "bairro": "São Conrado",
    "cep": "22610-160",
    "email": "emlmpereira@rioeduca.net",
    "telefone": "3322-3454 3322-7085",
    "lat": -22.9990695,
    "lng": -43.2717085,
    "id_setor": "1603"
  },
  {
    "sigla": "E/CRE(02.06.023)",
    "nome": "Escola Municipal Prefeito Djalma Maranhão",
    "endereco": "Avenida Niemeyer S/Nº",
    "bairro": "Vidigal",
    "cep": "22450-220",
    "email": "emmaranhao@rioeduca.net",
    "telefone": "3489-3471",
    "lat": -22.9973222,
    "lng": -43.2379014,
    "id_setor": "1603"
  },
  {
    "sigla": "E/CRE(02.06.024)",
    "nome": "Escola Municipal Sergio Vieira de Mello",
    "endereco": "Rua Adalberto Ferreira 19",
    "bairro": "Leblon",
    "cep": "22441-040",
    "email": "emsvmello@rioeduca.net",
    "telefone": "3114-1245 3114-1244",
    "lat": -22.9796096,
    "lng": -43.22261659999999,
    "id_setor": "1603"
  },
  {
    "sigla": "E/CRE(02.06.501)",
    "nome": "Ciep Presidente João Goulart",
    "endereco": "Rua Alberto de Campos 12",
    "bairro": "Ipanema",
    "cep": "22411-030",
    "email": "ciepgoulart@rioeduca.net",
    "telefone": "2267-9039 2521-2939",
    "lat": -22.9809584,
    "lng": -43.1993832,
    "id_setor": "1603"
  },
  {
    "sigla": "E/CRE(02.06.502)",
    "nome": "Ciep Nação Rubro Negra",
    "endereco": "Pça. Nossa Senhora Auxiliadora, S/Nº",
    "bairro": "Leblon",
    "cep": "22441-050",
    "email": "ciepnegra@rioeduca.net",
    "telefone": "3114-1247 2274-8707",
    "lat": -22.9789253,
    "lng": -43.2223331,
    "id_setor": "1603"
  },
  {
    "sigla": "E/CRE(02.06.601)",
    "nome": "Creche Municipal Doutor Sobral Pinto",
    "endereco": "Av. Presidente João Goulart, S/N° Vila Olimpica",
    "bairro": "Vidigal",
    "cep": "22450-242",
    "email": "",
    "telefone": "2422-2739",
    "lat": -22.9959232,
    "lng": -43.2451,
    "id_setor": "1603"
  },
  {
    "sigla": "E/CRE(02.06.602)",
    "nome": "Creche Municipal Vidigal",
    "endereco": "Av. Presidente João Goulart 270",
    "bairro": "Vidigal",
    "cep": "22450-242",
    "email": "cmvidigal@rioeduca.net",
    "telefone": "3875-8955",
    "lat": -22.9941618,
    "lng": -43.235154,
    "id_setor": "1603"
  },
  {
    "sigla": "E/CRE(02.06.603)",
    "nome": "Creche Municipal Jacó Inácio Gomes",
    "endereco": "Estrada Da Canoa  720",
    "bairro": "São Conrado",
    "cep": "22610-210",
    "email": "cmjaco@rioeduca.net",
    "telefone": "2422-2410",
    "lat": -22.9941834,
    "lng": -43.2715768,
    "id_setor": "1603"
  },
  {
    "sigla": "E/CRE(02.06.605)",
    "nome": "Creche Municipal Doutor Pedro Bloch",
    "endereco": "Estrada Santa Marinha  25",
    "bairro": "Gávea",
    "cep": "22451-240",
    "email": "cmbloch@rioeduca.net",
    "telefone": "3875-7804",
    "lat": -22.9813117,
    "lng": -43.240693,
    "id_setor": "1603"
  },
  {
    "sigla": "E/CRE(02.06.606)",
    "nome": "Creche Municipal Elza Machado dos Santos - Tia Elza",
    "endereco": "Rua Saint Roman 173",
    "bairro": "Copacabana",
    "cep": "22071-060",
    "email": "cmtiaelza@rioeduca.net",
    "telefone": "2267-9147",
    "lat": -22.9817007,
    "lng": -43.1959998,
    "id_setor": "1603"
  },
  {
    "sigla": "E/CRE(02.06.801)",
    "nome": "Espaço de Desenvolvimento Infantil Rubem Braga",
    "endereco": "Pça. Gal. Alcio Souto, 37",
    "bairro": "Lagoa",
    "cep": "22471-310",
    "email": "jirbraga@rioeduca.net",
    "telefone": "2538-1065 2535-1833",
    "lat": -22.9617392,
    "lng": -43.2035654,
    "id_setor": "1603"
  },
  {
    "sigla": "E/CRE(02.06.802)",
    "nome": "Espaço de Desenvolvimento Infantil Júlia Kubitschek",
    "endereco": "Rua Pacheco Leão,  1235",
    "bairro": "Jardim Botânico",
    "cep": "22460-035",
    "email": "edijuliak@rioeduca.net",
    "telefone": "2294-7174 2294-7848",
    "lat": -22.9670315,
    "lng": -43.2308341,
    "id_setor": "1603"
  },
  {
    "sigla": "E/CRE(02.08.001)",
    "nome": "Escola Municipal Azevedo Sodré",
    "endereco": "Rua Barão De Ubá 331",
    "bairro": "Praça Da Bandeira",
    "cep": "20260-050",
    "email": "emsodre@rioeduca.net",
    "telefone": "2273-2794 2293-0499",
    "lat": -22.9154577,
    "lng": -43.2109151,
    "id_setor": "1603"
  },
  {
    "sigla": "E/CRE(02.08.002)",
    "nome": "Escola Municipal Reverendo Martin Luther King",
    "endereco": "Rua Joaquim Palhares 648",
    "bairro": "Praça da Bandeira",
    "cep": "20260-080",
    "email": "emking@rioeduca.net",
    "telefone": "2273-2544 2293-0518",
    "lat": -22.9115491,
    "lng": -43.2116043,
    "id_setor": "1603"
  },
  {
    "sigla": "E/CRE(02.08.003)",
    "nome": "Escola Municipal Laudimia Trotta",
    "endereco": "Rua Antônio Basílio 370",
    "bairro": "Tijuca",
    "cep": "20511-190",
    "email": "emtrotta@rioeduca.net",
    "telefone": "3238-1445 3238-1469",
    "lat": -22.9266955,
    "lng": -43.2379288,
    "id_setor": "1603"
  },
  {
    "sigla": "E/CRE(02.08.004)",
    "nome": "Escola Municipal Francisco Cabrita",
    "endereco": "Avenida Melo Matos 34 fundos",
    "bairro": "Tijuca",
    "cep": "20270-290",
    "email": "emcabrita@rioeduca.net",
    "telefone": "2284-2639",
    "lat": -22.9206667,
    "lng": -43.22089769999999,
    "id_setor": "1603"
  },
  {
    "sigla": "E/CRE(02.08.005)",
    "nome": "Escola Municipal Bombeiro Geraldo Dias",
    "endereco": "Rua Francisco Graça 81",
    "bairro": "Tijuca",
    "cep": "20521-110",
    "email": "embdias@rioeduca.net",
    "telefone": "2254-5996 2204-2243",
    "lat": -22.9296117,
    "lng": -43.22812039999999,
    "id_setor": "1603"
  },
  {
    "sigla": "E/CRE(02.08.006)",
    "nome": "Escola Municipal Prudente de Moraes",
    "endereco": "Rua Enes de Sousa 36",
    "bairro": "Tijuca",
    "cep": "20521-210",
    "email": "empmoraes@rioeduca.net",
    "telefone": "2268-5609 2258-5444",
    "lat": -22.9291719,
    "lng": -43.2330467,
    "id_setor": "1603"
  },
  {
    "sigla": "E/CRE(02.08.007)",
    "nome": "Escola Municipal Barão de Itacurussá",
    "endereco": "Rua Andrade Neves 481",
    "bairro": "Tijuca",
    "cep": "20510-230",
    "email": "emitacurussa@rioeduca.net",
    "telefone": "2258-7244 2268-3029",
    "lat": -22.9338492,
    "lng": -43.2400114,
    "id_setor": "1603"
  },
  {
    "sigla": "E/CRE(02.08.008)",
    "nome": "Escola Municipal Almirante Barroso",
    "endereco": "Rua Homem De Melo 302",
    "bairro": "Tijuca",
    "cep": "20510-180",
    "email": "emabarroso@rioeduca.net",
    "telefone": "2268-3060 2258-5020",
    "lat": -22.9347004,
    "lng": -43.2396373,
    "id_setor": "1603"
  },
  {
    "sigla": "E/CRE(02.08.009)",
    "nome": "Escola Municipal General Euclydes de Figueiredo",
    "endereco": "Rua Alzira Brandão 500",
    "bairro": "Tijuca",
    "cep": "20550-035",
    "email": "emfigueiredo@rioeduca.net",
    "telefone": "2264-5395",
    "lat": -22.9201475,
    "lng": -43.2248392,
    "id_setor": "1603"
  },
  {
    "sigla": "E/CRE(02.08.010)",
    "nome": "Escola Municipal Soares Pereira",
    "endereco": "Avenida Maracanã 1450",
    "bairro": "Tijuca",
    "cep": "20511-001",
    "email": "emspereira@rioeduca.net",
    "telefone": "2268-5221 2268-6004",
    "lat": -22.9327034,
    "lng": -43.2430537,
    "id_setor": "1603"
  },
  {
    "sigla": "E/CRE(02.08.011)",
    "nome": "Escola Municipal Jornalista Brito Broca",
    "endereco": "Rua Castelo Novo  s/nº",
    "bairro": "Tijuca",
    "cep": "20530-680",
    "email": "emjbbroca@rioeduca.net",
    "telefone": "2278-7619 2278-7193",
    "lat": -22.9424657,
    "lng": -43.2427272,
    "id_setor": "1603"
  },
  {
    "sigla": "E/CRE(02.08.012)",
    "nome": "Escola Municipal Orsina da Fonseca",
    "endereco": "Rua São Francisco Xavier 95",
    "bairro": "Tijuca",
    "cep": "20550-010",
    "email": "emofonseca@rioeduca.net",
    "telefone": "2214-1462 3872-2210 3234-6338",
    "lat": -22.9200986,
    "lng": -43.2239692,
    "id_setor": "1603"
  },
  {
    "sigla": "E/CRE(02.08.013)",
    "nome": "Escola Municipal Mário da Veiga Cabral",
    "endereco": "Avenida Mello Mattos 34",
    "bairro": "Tijuca",
    "cep": "20270-290",
    "email": "emvcabral@rioeduca.net",
    "telefone": "2214-1485 2284-3101",
    "lat": -22.9206667,
    "lng": -43.22089769999999,
    "id_setor": "1603"
  },
  {
    "sigla": "E/CRE(02.08.014)",
    "nome": "Escola Municipal Frei Cassiano",
    "endereco": "Rua Joaquim Pizarro 500",
    "bairro": "Tijuca",
    "cep": "20261-110",
    "email": "cccassiano@rioeduca.net",
    "telefone": "2234-8245 2284-3118",
    "lat": -22.9263581,
    "lng": -43.2182782,
    "id_setor": "1603"
  },
  {
    "sigla": "E/CRE(02.08.016)",
    "nome": "Escola Municipal Leitão da Cunha",
    "endereco": "Rua Major Ávila 317",
    "bairro": "Tijuca",
    "cep": "20511-140",
    "email": "emlcunha@rioeduca.net",
    "telefone": "2284-3414 2214-1721",
    "lat": -22.9212725,
    "lng": -43.233666,
    "id_setor": "1603"
  },
  {
    "sigla": "E/CRE(02.08.017)",
    "nome": "Escola Municipal Araújo Porto Alegre",
    "endereco": "Estr. Velha Da Tijuca,  181",
    "bairro": "Alto da Boa Vista",
    "cep": "20531-080",
    "email": "empalegre@rioeduca.net",
    "telefone": "2278-7384 2278-7320",
    "lat": -22.9481765,
    "lng": -43.25811969999999,
    "id_setor": "1603"
  },
  {
    "sigla": "E/CRE(02.08.018)",
    "nome": "Escola Municipal Menezes Vieira",
    "endereco": "Rua Boa Vista 154",
    "bairro": "Alto Boa Vista",
    "cep": "20531-610",
    "email": "emvieira@rioeduca.net",
    "telefone": "2492-5343",
    "lat": -22.9651418,
    "lng": -43.2772093,
    "id_setor": "1603"
  },
  {
    "sigla": "E/CRE(02.08.020)",
    "nome": "Escola Municipal Diogo Feijó",
    "endereco": "Estr. Da Paz 1474 casa 02",
    "bairro": "Alto Boa Vista",
    "cep": "20531-340",
    "email": "emfeijo@rioeduca.net",
    "telefone": "999511979",
    "lat": -22.9680848,
    "lng": -43.2958874,
    "id_setor": "1603"
  },
  {
    "sigla": "E/CRE(02.08.021)",
    "nome": "Escola Municipal Mário Faccini",
    "endereco": "Avenida Edison Passos 711",
    "bairro": "Alto da Boa Vista",
    "cep": "20531-073",
    "email": "emfaccini@rioeduca.net",
    "telefone": "2278-7566 2278-7317",
    "lat": -22.9493321,
    "lng": -43.2611148,
    "id_setor": "1603"
  },
  {
    "sigla": "E/CRE(02.08.022)",
    "nome": "Escola Municipal Mata Machado",
    "endereco": "Estrada das Furnas 1467",
    "bairro": "Alto Boa Vista",
    "cep": "20531-572",
    "email": "ccmatta@rioeduca.net",
    "telefone": "2492-1224 2493-0898",
    "lat": -22.9746636,
    "lng": -43.2865056,
    "id_setor": "1603"
  },
  {
    "sigla": "E/CRE(02.08.023)",
    "nome": "Escola Municipal Marc Ferrez",
    "endereco": "Rua Jornalista Guima S/N°",
    "bairro": "Alto Boa Vista",
    "cep": "20531-400",
    "email": "emferrez@rioeduca.net",
    "telefone": "2492-5362 2492-1462",
    "lat": -22.9650807,
    "lng": -43.2779812,
    "id_setor": "1603"
  },
  {
    "sigla": "E/CRE(02.08.501)",
    "nome": "Ciep Samuel Wainer",
    "endereco": "Av Heitor Beltrão, s/nº",
    "bairro": "Tijuca",
    "cep": "20550-000",
    "email": "ciepwainer@rioeduca.net",
    "telefone": "2234-4383 2264-3297",
    "lat": -22.9208335,
    "lng": -43.2258006,
    "id_setor": "1603"
  },
  {
    "sigla": "E/CRE(02.08.502)",
    "nome": "Ciep Doutor Antoine Magarinos Torres Filho",
    "endereco": "Rua São Miguel  S/Nº",
    "bairro": "Tijuca",
    "cep": "20530-420",
    "email": "ciepafilho@rioeduca.net",
    "telefone": "2288-9026 1",
    "lat": -22.9394691,
    "lng": -43.2515642,
    "id_setor": "1603"
  },
  {
    "sigla": "E/CRE(02.08.601)",
    "nome": "Creche Municipal Casa Branca - Professor Paulo Freire",
    "endereco": "TRAVESSA VENÁNCIO  73",
    "bairro": "Tijuca",
    "cep": "20530-410",
    "email": "cmcasabranca@rioeduca.net",
    "telefone": "2298-3502",
    "lat": -22.9363505,
    "lng": -43.2488062,
    "id_setor": "1603"
  },
  {
    "sigla": "E/CRE(02.08.603)",
    "nome": "Creche Municipal Raízes do Salgueiro",
    "endereco": "Rua Junquilhos  s/n",
    "bairro": "Tijuca",
    "cep": "20521-090",
    "email": "cmsalgueiro@rioeduca.net",
    "telefone": "2234-8234",
    "lat": -22.9287255,
    "lng": -43.2264132,
    "id_setor": "1603"
  },
  {
    "sigla": "E/CRE(02.08.604)",
    "nome": "Creche Municipal Tia Bela",
    "endereco": "Caminho Da Grota s/n",
    "bairro": "Tijuca",
    "cep": "20530-210",
    "email": "cmtbela@rioeduca.net",
    "telefone": "2208-0289",
    "lat": -22.9318746,
    "lng": -43.24005529999999,
    "id_setor": "1603"
  },
  {
    "sigla": "E/CRE(02.08.605)",
    "nome": "Creche Municipal Tia Maria",
    "endereco": "Rua Castelnuovo S/Nº",
    "bairro": "Tijuca",
    "cep": "20530-120",
    "email": "cmtmaria@rioeduca.net",
    "telefone": "2278-7121",
    "lat": -22.9424657,
    "lng": -43.2427272,
    "id_setor": "1603"
  },
  {
    "sigla": "E/CRE(02.08.606)",
    "nome": "Creche Municipal Doutor Ronaldo Luiz Gazolla",
    "endereco": "Rua Paulino Nogueira 300",
    "bairro": "Tijuca",
    "cep": "20530-100",
    "email": "cmgazolla@rioeduca.net",
    "telefone": "2278-0122",
    "lat": -22.9401027,
    "lng": -43.2445418,
    "id_setor": "1603"
  },
  {
    "sigla": "E/CRE(02.08.607)",
    "nome": "Creche Municipal dos Sonhos",
    "endereco": "Rua Moisés Borges  s/nª",
    "bairro": "Tijuca - Comunidade Chacrinha",
    "cep": "20260-330",
    "email": "cmsonhos@rioeduca.net",
    "telefone": "3161-0901",
    "lat": -22.9044015,
    "lng": -43.3571566,
    "id_setor": "1603"
  },
  {
    "sigla": "E/CRE(02.08.608)",
    "nome": "Creche Municipal Doutor Sérgio Arouca",
    "endereco": "Rua Joaquim Pizarro 10",
    "bairro": "Tijuca",
    "cep": "20261-110",
    "email": "cmarouca@rioeduca.net",
    "telefone": "3978-4279",
    "lat": -22.9230775,
    "lng": -43.2156735,
    "id_setor": "1603"
  },
  {
    "sigla": "E/CRE(02.08.801)",
    "nome": "Espaço de Desenvolvimento Infantil Igor Moraes da Silva",
    "endereco": "Praça Dr. Machado da Costa,  11 e 14",
    "bairro": "Alto da Boa Vista",
    "cep": "20535-280",
    "email": "edisete@rioeduca.net",
    "telefone": "2484-7809",
    "lat": -22.9749547,
    "lng": -43.2733182,
    "id_setor": "1603"
  },
  {
    "sigla": "E/CRE(02.08.802)",
    "nome": "Espaço de Desenvolvimento Infantil Dr. Marcelo Candia",
    "endereco": "Estr. da Independência s/nº",
    "bairro": "Tijuca",
    "cep": "20530-400",
    "email": "cccandia@rioeduca.net",
    "telefone": "2288-7134",
    "lat": -22.9385751,
    "lng": -43.2546309,
    "id_setor": "1603"
  },
  {
    "sigla": "E/CRE(02.08.803)",
    "nome": "Espaço de Desenvolvimento Infantil Borel",
    "endereco": "Rua São Miguel  s/nº",
    "bairro": "Tijuca",
    "cep": "20530-420",
    "email": "ccborel@rioeduca.net",
    "telefone": "2208-3346 2278-7438",
    "lat": -22.9394691,
    "lng": -43.2515642,
    "id_setor": "1603"
  },
  {
    "sigla": "E/CRE(02.08.804)",
    "nome": "Espaço de Desenvolvimento Infantil Chácara do Céu",
    "endereco": "Estr. da Independência s/nº Chácara do Céu",
    "bairro": "Tijuca",
    "cep": "20530-400",
    "email": "ccceu@rioeduca.net",
    "telefone": "2571-1499 3238-2999",
    "lat": -22.9385751,
    "lng": -43.2546309,
    "id_setor": "1603"
  },
  {
    "sigla": "E/CRE(02.08.805)",
    "nome": "Espaço de Desenvolvimento Infantil José da Silva Araújo",
    "endereco": "Estr. Das Furnas 2.109",
    "bairro": "Alto Boa Vista",
    "cep": "20531-575",
    "email": "emjsaraujo@rioeduca.net",
    "telefone": "2493-4085 2494-2923",
    "lat": -22.9805159,
    "lng": -43.292568,
    "id_setor": "1603"
  },
  {
    "sigla": "E/CRE(02.08.806)",
    "nome": "Espaço de Desenvolvimento Infantil Raio de Sol",
    "endereco": "Rua São Miguel  S/N°",
    "bairro": "Tijuca",
    "cep": "20530-420",
    "email": "cmraiodesol@rioeduca.net",
    "telefone": "2298-4094",
    "lat": -22.9394691,
    "lng": -43.2515642,
    "id_setor": "1603"
  },
  {
    "sigla": "E/CRE(02.09.001)",
    "nome": "Escola Municipal Benedito Ottoni",
    "endereco": "Rua Senador Furtado, 90",
    "bairro": "Maracanã",
    "cep": "20270-020",
    "email": "embenedito@rioeduca.net",
    "telefone": "2284-1366 2284-1336 2214-1392",
    "lat": -22.9108428,
    "lng": -43.2193112,
    "id_setor": "1603"
  },
  {
    "sigla": "E/CRE(02.09.003)",
    "nome": "Escola Especial Municipal Francisco de Castro",
    "endereco": "Av. Paula  Sousa s/nº",
    "bairro": "Maracanã",
    "cep": "20271-120",
    "email": "emfcastro@rioeduca.net",
    "telefone": "2264-6198 2234-8631",
    "lat": -22.9145672,
    "lng": -43.2275372,
    "id_setor": "1603"
  },
  {
    "sigla": "E/CRE(02.09.004)",
    "nome": "Escola Municipal Conselheiro Mayrink",
    "endereco": "Pça. General Portinho 2",
    "bairro": "Maracanã",
    "cep": "20271-010",
    "email": "emmayrink@rioeduca.net",
    "telefone": "2214-1392 2264-6279 2284-1627",
    "lat": -22.9144162,
    "lng": -43.2241285,
    "id_setor": "1603"
  },
  {
    "sigla": "E/CRE(02.09.005)",
    "nome": "Escola Municipal Barão Homem de Mello",
    "endereco": "Rua Alm. João Cândido Brasil 352",
    "bairro": "Maracanã",
    "cep": "20511-020",
    "email": "embhmello@rioeduca.net",
    "telefone": "2208-9799",
    "lat": -22.9168942,
    "lng": -43.2369343,
    "id_setor": "1603"
  },
  {
    "sigla": "E/CRE(02.09.006)",
    "nome": "Escola Municipal Friedenreich",
    "endereco": "Av. Maracanã 350 Suderj",
    "bairro": "Maracanã",
    "cep": "20271-111",
    "email": "emfriedenreich@rioeduca.net",
    "telefone": "2284-1402 2254-2488",
    "lat": -22.9135142,
    "lng": -43.2272027,
    "id_setor": "1603"
  },
  {
    "sigla": "E/CRE(02.09.007)",
    "nome": "Escola Municipal Jornalista Assis Chateaubriand",
    "endereco": "Rua Visc. De Santa Isabel 272",
    "bairro": "Vila Isabel",
    "cep": "20560-120",
    "email": "emchateau@rioeduca.net",
    "telefone": "2214-3028 2214-3291",
    "lat": -22.9165917,
    "lng": -43.2590641,
    "id_setor": "1603"
  },
  {
    "sigla": "E/CRE(02.09.008)",
    "nome": "Escola Municipal Madrid",
    "endereco": "Rua Maxwell 8",
    "bairro": "Vila Isabel",
    "cep": "20541-100",
    "email": "emmadrid@rioeduca.net",
    "telefone": "2204-2374 2234-4705",
    "lat": -22.916176,
    "lng": -43.236612,
    "id_setor": "1603"
  },
  {
    "sigla": "E/CRE(02.09.009)",
    "nome": "Escola Municipal República Argentina",
    "endereco": "Rua EURICO RABELO 135",
    "bairro": "Maracanã",
    "cep": "20271-150",
    "email": "",
    "telefone": "2264-8556",
    "lat": -22.9136885,
    "lng": -43.2317128,
    "id_setor": "1603"
  },
  {
    "sigla": "E/CRE(02.09.010)",
    "nome": "Escola Municipal Equador",
    "endereco": "Boulevard 28 De Setembro, 353",
    "bairro": "Vila Isabel",
    "cep": "20551-031",
    "email": "emequador@rioeduca.net",
    "telefone": "2278-6625 2214-3035 2258-8697",
    "lat": -22.9161812,
    "lng": -43.2469335,
    "id_setor": "1603"
  },
  {
    "sigla": "E/CRE(02.09.011)",
    "nome": "Escola Municipal Noel Rosa",
    "endereco": "Rua Barão Do Bom Retiro  1.745",
    "bairro": "Grajaú",
    "cep": "20540-341",
    "email": "emnoelrosa@rioeduca.net",
    "telefone": "2218-6930 2218-4595",
    "lat": -22.9154618,
    "lng": -43.2625091,
    "id_setor": "1603"
  },
  {
    "sigla": "E/CRE(02.09.012)",
    "nome": "Escola Municipal Mário de Andrade",
    "endereco": "Rua Joubert De Carvalho s/nº",
    "bairro": "Vila Isabel",
    "cep": "20560-140",
    "email": "emmandrade@rioeduca.net",
    "telefone": "2214-3093 2258-7851",
    "lat": -22.9162138,
    "lng": -43.2589238,
    "id_setor": "1603"
  },
  {
    "sigla": "E/CRE(02.09.013)",
    "nome": "Escola Municipal Francisco Manuel",
    "endereco": "Rua Senador Soares 61",
    "bairro": "Vila Isabel",
    "cep": "20541-020",
    "email": "emfmanuel@rioeduca.net",
    "telefone": "3238-4591 3238-4592",
    "lat": -22.9206896,
    "lng": -43.2419489,
    "id_setor": "1603"
  },
  {
    "sigla": "E/CRE(02.09.014)",
    "nome": "Escola Municipal General Humberto de Souza Mello",
    "endereco": "Rua Oito De Dezembro 275",
    "bairro": "Macaranã",
    "cep": "20550-200",
    "email": "emghmello@rioeduca.net",
    "telefone": "2284-1562 2284-1254 2284-1569",
    "lat": -22.9096785,
    "lng": -43.2397769,
    "id_setor": "1603"
  },
  {
    "sigla": "E/CRE(02.09.016)",
    "nome": "Escola Municipal Affonso Penna",
    "endereco": "Rua Barão de Mesquita 499",
    "bairro": "Vila Isabel",
    "cep": "20540-145",
    "email": "emapenna@rioeduca.net",
    "telefone": "3238-4590 2288-1163",
    "lat": -22.9246189,
    "lng": -43.2400598,
    "id_setor": "1603"
  },
  {
    "sigla": "E/CRE(02.09.017)",
    "nome": "Escola Municipal Baptista Pereira",
    "endereco": "Rua Silva Teles 65",
    "bairro": "Andaraí",
    "cep": "20541-110",
    "email": "embpereira@rioeduca.net",
    "telefone": "2208-4762 2278-7694",
    "lat": -22.9223832,
    "lng": -43.2437164,
    "id_setor": "1603"
  },
  {
    "sigla": "E/CRE(02.09.018)",
    "nome": "Escola Municipal Rodrigo Mello Franco Andrade",
    "endereco": "Rua Ernesto De Souza 153 Fundos",
    "bairro": "Andaraí",
    "cep": "20510-360",
    "email": "emrfandrade@rioeduca.net",
    "telefone": "2288-1267",
    "lat": -22.92977,
    "lng": -43.250948,
    "id_setor": "1603"
  },
  {
    "sigla": "E/CRE(02.09.019)",
    "nome": "Escola Municipal Afrânio Peixoto",
    "endereco": "Rua . Ferreira Pontes 328",
    "bairro": "Andaraí",
    "cep": "20541-280",
    "email": "emafraniop@rioeduca.net",
    "telefone": "2278-7326",
    "lat": -22.9268598,
    "lng": -43.2549267,
    "id_setor": "1603"
  },
  {
    "sigla": "E/CRE(02.09.020)",
    "nome": "Escola Municipal Epitácio Pessoa",
    "endereco": "Rua Ernesto de Souza 153",
    "bairro": "Andaraí",
    "cep": "20510-360",
    "email": "emepessoa@rioeduca.net",
    "telefone": "2278-7152 2278-7251",
    "lat": -22.92977,
    "lng": -43.250948,
    "id_setor": "1603"
  },
  {
    "sigla": "E/CRE(02.09.021)",
    "nome": "Escola Municipal Presidente João Goulart",
    "endereco": "Rua Barão De Mesquita 850",
    "bairro": "Andaraí",
    "cep": "20548-900",
    "email": "empjgoulart@rioeduca.net",
    "telefone": "2214-3000 2258-8377",
    "lat": -22.9230828,
    "lng": -43.2529295,
    "id_setor": "1603"
  },
  {
    "sigla": "E/CRE(02.09.023)",
    "nome": "Escola Municipal Panamá",
    "endereco": "Rua Duquesa de Bragança 22",
    "bairro": "Grajaú",
    "cep": "20540-300",
    "email": "empanama@rioeduca.net",
    "telefone": "2278-7267 2288-1628",
    "lat": -22.9232085,
    "lng": -43.2552487,
    "id_setor": "1603"
  },
  {
    "sigla": "E/CRE(02.09.024)",
    "nome": "Escola Municipal Duque de Caxias",
    "endereco": "Rua Marechal Jofre 74",
    "bairro": "Grajaú",
    "cep": "20560-180",
    "email": "emdcaxias@rioeduca.net",
    "telefone": "2258-8097 2278-5716",
    "lat": -22.9182687,
    "lng": -43.2652218,
    "id_setor": "1603"
  },
  {
    "sigla": "E/CRE(02.09.025)",
    "nome": "Escola Municipal Francisco Campos",
    "endereco": "Rua Nossa Senhora De Lourdes 175",
    "bairro": "Grajaú",
    "cep": "20540-370",
    "email": "emfcampos@rioeduca.net",
    "telefone": "3879-0211 2278-5786",
    "lat": -22.9220187,
    "lng": -43.2577798,
    "id_setor": "1603"
  },
  {
    "sigla": "E/CRE(02.09.026)",
    "nome": "Escola Municipal Professor Lourenço Filho",
    "endereco": "Pça. Edmundo Rego 11",
    "bairro": "Grajaú",
    "cep": "20561-130",
    "email": "emplfilho@rioeduca.net",
    "telefone": "2278-6178 2278-6171",
    "lat": -22.9230992,
    "lng": -43.2648021,
    "id_setor": "1603"
  },
  {
    "sigla": "E/CRE(02.09.501)",
    "nome": "Ciep Presidente Salvador Allende",
    "endereco": "Rua Armando Albuquerque s/nº",
    "bairro": "Vila Isabel",
    "cep": "20560-130",
    "email": "ciepallende@rioeduca.net",
    "telefone": "2278-6454 2587-0001",
    "lat": -22.9150367,
    "lng": -43.2611426,
    "id_setor": "1603"
  },
  {
    "sigla": "E/CRE(02.09.601)",
    "nome": "Creche Municipal Pipa no Céu",
    "endereco": "R. Maestro Ernesto Nazaré s/nº",
    "bairro": "Vila Isabel",
    "cep": "20550-210",
    "email": "cmpipanoceu@rioeduca.net",
    "telefone": "2254-2280",
    "lat": -22.9086082,
    "lng": -43.2411893,
    "id_setor": "1603"
  },
  {
    "sigla": "E/CRE(02.09.602)",
    "nome": "Creche Municipal Cantinho do Céu",
    "endereco": "Rua  Tenente Marques de Sousa - Morro do Cruz 259",
    "bairro": "Tijuca",
    "cep": "20530-006",
    "email": "cmcantinho@rioeduca.net",
    "telefone": "2278-9336",
    "lat": -22.93162,
    "lng": -43.2512825,
    "id_setor": "1603"
  },
  {
    "sigla": "E/CRE(02.09.603)",
    "nome": "Creche Municipal Galdino Manoel da Silva",
    "endereco": "Rua Adolfo Caminha s/n.º",
    "bairro": "Andaraí",
    "cep": "20541-310",
    "email": "cmgaldino@rioeduca.net",
    "telefone": "2208-6149",
    "lat": -22.9331002,
    "lng": -43.2610655,
    "id_setor": "1603"
  },
  {
    "sigla": "E/CRE(02.09.604)",
    "nome": "Creche Municipal Nova Divinéia",
    "endereco": "Rua Engenheiro Morsing 228",
    "bairro": "Grajaú - Morro Nova Divinéia",
    "cep": "20561-220",
    "email": "cmdivineia@rioeduca.net",
    "telefone": "2278-9094",
    "lat": -22.9259393,
    "lng": -43.2623822,
    "id_setor": "1603"
  },
  {
    "sigla": "E/CRE(02.09.605)",
    "nome": "Creche Municipal São Sebastião - Arrelia",
    "endereco": "Rua Santo Agostinho - São Sebastião Arrelia s/nº",
    "bairro": "Andaraí",
    "cep": "20541-260",
    "email": "cmarrelia@rioeduca.net",
    "telefone": "2035-5873",
    "lat": -22.933728,
    "lng": -43.2591787,
    "id_setor": "1603"
  },
  {
    "sigla": "E/CRE(02.09.606)",
    "nome": "Creche Municipal Winnie Mandela",
    "endereco": "Rua Andaraí ( Morro do Andaraí ) 401",
    "bairro": "Andaraí",
    "cep": "20541-210",
    "email": "cmwinnie@rioeduca.net",
    "telefone": "3238-1441",
    "lat": -22.9329241,
    "lng": -43.2573699,
    "id_setor": "1603"
  },
  {
    "sigla": "E/CRE(02.09.607)",
    "nome": "Creche Municipal Solange Maria Magalhães",
    "endereco": "Rua Senador Nabuco 248",
    "bairro": "Vila Isabel",
    "cep": "20551-230",
    "email": "cmsolange@rioeduca.net",
    "telefone": "2278-5418",
    "lat": -22.9133723,
    "lng": -43.25250519999999,
    "id_setor": "1603"
  },
  {
    "sigla": "E/CRE(02.09.608)",
    "nome": "Creche Municipal Germinal da Vila",
    "endereco": "Rua Petrocochino 73 Fundos",
    "bairro": "Vila Isabel",
    "cep": "20551-255",
    "email": "cmgerminal@rioeduca.net",
    "telefone": "2278-6888",
    "lat": -22.9143778,
    "lng": -43.2550468,
    "id_setor": "1603"
  },
  {
    "sigla": "E/CRE(02.09.609)",
    "nome": "Creche Municipal Papa João Paulo II",
    "endereco": "Rua Sá Viana 222",
    "bairro": "Grajaú",
    "cep": "20540-260",
    "email": "cmjoaopaulo@rioeduca.net",
    "telefone": "3238-1442",
    "lat": -22.9292248,
    "lng": -43.2618669,
    "id_setor": "1603"
  },
  {
    "sigla": "E/CRE(02.09.610)",
    "nome": "Creche Municipal Francisco de Paula",
    "endereco": "Rua Correia de Oliveira, 21",
    "bairro": "Vila Isabel",
    "cep": "20551-200",
    "email": "",
    "telefone": "",
    "lat": -22.9118953,
    "lng": -43.2475791,
    "id_setor": "1603"
  },
  {
    "sigla": "E/CRE(02.09.801)",
    "nome": "Espaço de Desenvolvimento Infantil Barbara Ottoni",
    "endereco": "Rua Senador Furtado 94",
    "bairro": "Maracanã",
    "cep": "20270-020",
    "email": "emottoni@rioeduca.net",
    "telefone": "2264-1341",
    "lat": -22.91073,
    "lng": -43.2197538,
    "id_setor": "1603"
  },
  {
    "sigla": "E/CRE(02.09.802)",
    "nome": "Espaço de Desenvolvimento Infantil Aníbal Machado",
    "endereco": "Rua Ernesto De Souza 149",
    "bairro": "Andaraí",
    "cep": "20510-360",
    "email": "jiamachado@rioeduca.net",
    "telefone": "2278-7037",
    "lat": -22.9295948,
    "lng": -43.2508473,
    "id_setor": "1603"
  },
  {
    "sigla": "E/CRE(02.09.803)",
    "nome": "Espaço de Desenvolvimento Infantil Professora Suely de Pinho Cavalcante",
    "endereco": "Rua Armando Albuquerque s/n°",
    "bairro": "Vila Isabel",
    "cep": "20560-130",
    "email": "ediscavalcante@rioeduca.net",
    "telefone": "2288-1534",
    "lat": -22.9150367,
    "lng": -43.2611426,
    "id_setor": "1603"
  },
  {
    "sigla": "E/CRE(02.09.804)",
    "nome": "Espaço de Desenvolvimento Infantil Professora Lucia Maria Quitete de Carvalho Amaral",
    "endereco": "Rua Borda do Mato s/nº",
    "bairro": "Grajaú",
    "cep": "20561-208",
    "email": "ediluciaquitete@rioeduca.net",
    "telefone": "2288-9488",
    "lat": -22.9286197,
    "lng": -43.2650117,
    "id_setor": "1603"
  },
  {
    "sigla": "E/CRE(02.27.001)",
    "nome": "Escola Municipal Abelardo Chacrinha Barbosa",
    "endereco": "Rua Maria do Carmo Soares do Nascimento s/n.º",
    "bairro": "Rocinha",
    "cep": "22451-267",
    "email": "emchacrinha@rioeduca.net",
    "telefone": "3322-3952",
    "lat": -22.9854474,
    "lng": -43.2466319,
    "id_setor": "1603"
  },
  {
    "sigla": "E/CRE(02.27.002)",
    "nome": "Escola Municipal Francisco de Paula Brito",
    "endereco": "Rua Dionéia s/n.º",
    "bairro": "Gávea",
    "cep": "22451-330",
    "email": "empaulabrito@rioeduca.net",
    "telefone": "2422-5151",
    "lat": -22.986667,
    "lng": -43.2508348,
    "id_setor": "1603"
  },
  {
    "sigla": "E/CRE(02.27.004)",
    "nome": "Escola Municipal Rinaldo De Lamare",
    "endereco": "Avenida Niemeyer 776",
    "bairro": "São Conrado",
    "cep": "22450-221",
    "email": "emrlamare@rioeduca.net",
    "telefone": "3111-1047 3111-1045 3111-1030",
    "lat": -22.9932975,
    "lng": -43.2525285,
    "id_setor": "1603"
  },
  {
    "sigla": "E/CRE(02.27.005)",
    "nome": "Escola Municipal André Urani",
    "endereco": "Estrada da Gávea 147",
    "bairro": "Gávea (Rocinha)",
    "cep": "22451-262",
    "email": "emurani@rioeduca.net",
    "telefone": "2274-8055",
    "lat": -22.9858225,
    "lng": -43.2429643,
    "id_setor": "1603"
  },
  {
    "sigla": "E/CRE(02.27.006)",
    "nome": "Escola Municipal Luiz Paulo Horta",
    "endereco": "Estrada da Gávea  s/nº",
    "bairro": "Rocinha",
    "cep": "22451-263",
    "email": "",
    "telefone": "",
    "lat": -22.9878903,
    "lng": -43.247602,
    "id_setor": "1603"
  },
  {
    "sigla": "E/CRE(02.27.501)",
    "nome": "Ciep Doutor Bento Rubião",
    "endereco": "Estr. Da Gávea s/nº",
    "bairro": "Gávea",
    "cep": "22451-263",
    "email": "cieprubiao@rioeduca.net",
    "telefone": "3322-3433",
    "lat": -22.9836919,
    "lng": -43.24283,
    "id_setor": "1603"
  },
  {
    "sigla": "E/CRE(02.27.601)",
    "nome": "Creche Municipal Castelinho",
    "endereco": "Travessa Samaritana, 308 22",
    "bairro": "Gávea",
    "cep": "22451-560",
    "email": "cmcastelinho@rioeduca.net",
    "telefone": "",
    "lat": -22.9869947,
    "lng": -43.2465407,
    "id_setor": "1603"
  },
  {
    "sigla": "E/CRE(02.27.602)",
    "nome": "Creche Municipal Iacyra Frazão",
    "endereco": "Estrada Da Gávea  ( Rocinha ) 250 Laboriaux",
    "bairro": "Gávea",
    "cep": "22451-264",
    "email": "cmfrazao@rioeduca.net",
    "telefone": "3322-5773",
    "lat": -22.9859493,
    "lng": -43.2452175,
    "id_setor": "1603"
  },
  {
    "sigla": "E/CRE(02.27.801)",
    "nome": "Espaço de Desenvolvimento Infantil Professora Edir Caseiro Ribeiro",
    "endereco": "Estrada da Gavea, 452",
    "bairro": "Rocinha",
    "cep": "22451-262",
    "email": "edieribeiro@rioeduca.net",
    "telefone": "2422-3165",
    "lat": -22.9882864,
    "lng": -43.2488785,
    "id_setor": "1603"
  },
  {
    "sigla": "E/CRE(03.12.001)",
    "nome": "Escola Municipal Oswaldo Cruz",
    "endereco": "Av. dos Democráticos, 683",
    "bairro": "Higienópolis",
    "cep": "21050-435",
    "email": "emocruz@rioeduca.net",
    "telefone": "3104-8256 3887-4705",
    "lat": -22.8779247,
    "lng": -43.2562467,
    "id_setor": "1604"
  },
  {
    "sigla": "E/CRE(03.12.002)",
    "nome": "Escola Municipal Alcide de Gasperi",
    "endereco": "Rua Miraluz 181",
    "bairro": "Higienópolis",
    "cep": "21061-040",
    "email": "emagasperi@rioeduca.net",
    "telefone": "2573-5346 3887-4506",
    "lat": -22.869485,
    "lng": -43.2649755,
    "id_setor": "1604"
  },
  {
    "sigla": "E/CRE(03.12.003)",
    "nome": "Escola Municipal Ordem e Progresso",
    "endereco": "Rua Açapuva 132",
    "bairro": "Higienópolis",
    "cep": "21050-730",
    "email": "emoprogresso@rioeduca.net",
    "telefone": "3885-9193 3885-8511",
    "lat": -22.8762997,
    "lng": -43.26258660000001,
    "id_setor": "1604"
  },
  {
    "sigla": "E/CRE(03.12.004)",
    "nome": "Escola Municipal Estado da Guanabara",
    "endereco": "Rua Lourenço Ribeiro 31",
    "bairro": "Higienópolis",
    "cep": "21050-510",
    "email": "emeguanaba@rioeduca.net",
    "telefone": "3887-4692 3104-9553",
    "lat": -22.8785306,
    "lng": -43.2562309,
    "id_setor": "1604"
  },
  {
    "sigla": "E/CRE(03.12.005)",
    "nome": "Escola Municipal D. João VI",
    "endereco": "Rua Darke de Matos 166",
    "bairro": "Higienópolis",
    "cep": "21051-470",
    "email": "emdjvi@rioeduca.net",
    "telefone": "3887-4563 3888-0828",
    "lat": -22.8727943,
    "lng": -43.2632211,
    "id_setor": "1604"
  },
  {
    "sigla": "E/CRE(03.12.006)",
    "nome": "Escola Municipal Ministro Orosimbo Nonato",
    "endereco": "Rua Darke de Matos 152",
    "bairro": "Higienópolis",
    "cep": "21051-470",
    "email": "emnonato@rioeduca.net",
    "telefone": "3888-9571 3888-0174",
    "lat": -22.8728364,
    "lng": -43.2629136,
    "id_setor": "1604"
  },
  {
    "sigla": "E/CRE(03.12.008)",
    "nome": "Escola Municipal Delfim Moreira",
    "endereco": "Pça. Ubajara 28",
    "bairro": "Jacaré",
    "cep": "20975-020",
    "email": "emdmoreira@rioeduca.net",
    "telefone": "2218-5477 3278-3290",
    "lat": -22.8939162,
    "lng": -43.2523774,
    "id_setor": "1604"
  },
  {
    "sigla": "E/CRE(03.12.009)",
    "nome": "Escola Municipal George Sumner",
    "endereco": "Rua Ana Néri, 2.028",
    "bairro": "Riachuelo",
    "cep": "20960-002",
    "email": "emsummer@rioeduca.net",
    "telefone": "3278-3338 3278-3196",
    "lat": -22.9006313,
    "lng": -43.2554933,
    "id_setor": "1604"
  },
  {
    "sigla": "E/CRE(03.12.010)",
    "nome": "Escola Municipal Pace",
    "endereco": "Av. Dom Hélder Câmara 2.320",
    "bairro": "Benfica",
    "cep": "21050-452",
    "email": "empace@rioeduca.net",
    "telefone": "3888-7852 3888-7507",
    "lat": -22.8902397,
    "lng": -43.2427406,
    "id_setor": "1604"
  },
  {
    "sigla": "E/CRE(03.12.011)",
    "nome": "Escola Municipal Pernambuco",
    "endereco": "Rua Conde de Azambuja  579",
    "bairro": "Maria da Graça",
    "cep": "20785-341",
    "email": "empernambuco@rioeduca.net",
    "telefone": "2218-5479 3278-3362",
    "lat": -22.884319,
    "lng": -43.262603,
    "id_setor": "1604"
  },
  {
    "sigla": "E/CRE(03.12.012)",
    "nome": "Escola Municipal Manuel Bonfim",
    "endereco": "Rua Braque,  31",
    "bairro": "Del Castilho",
    "cep": "20771-350",
    "email": "emmbonfim@rioeduca.net",
    "telefone": "2218-5480 3278-3772",
    "lat": -22.8846414,
    "lng": -43.2741343,
    "id_setor": "1604"
  },
  {
    "sigla": "E/CRE(03.12.013)",
    "nome": "Escola Municipal São Domingos",
    "endereco": "Pça. Confederação Suíça,  s/nº",
    "bairro": "Del Castilho",
    "cep": "20760-020",
    "email": "emsdomingos@rioeduca.net",
    "telefone": "2573-3243",
    "lat": -22.8786683,
    "lng": -43.2753211,
    "id_setor": "1604"
  },
  {
    "sigla": "E/CRE(03.12.014)",
    "nome": "Escola Municipal Nereu Sampaio",
    "endereco": "Rua Nunes Viana  S/Nº",
    "bairro": "Inhaúma",
    "cep": "20765-370",
    "email": "emnsampaio@rioeduca.net",
    "telefone": "3273-1456 3273-1315",
    "lat": -22.8680151,
    "lng": -43.2886639,
    "id_setor": "1604"
  },
  {
    "sigla": "E/CRE(03.12.015)",
    "nome": "Escola Municipal Barão de Macahubas",
    "endereco": "Rua Padre Januario,  220",
    "bairro": "Inhaúma",
    "cep": "20765-140",
    "email": "emmacaubas@rioeduca.net",
    "telefone": "3273-1963 3273-1032",
    "lat": -22.873113,
    "lng": -43.2830269,
    "id_setor": "1604"
  },
  {
    "sigla": "E/CRE(03.12.016)",
    "nome": "Escola Municipal Ceará",
    "endereco": "Rua Dona Emilia 161",
    "bairro": "Inhaúma",
    "cep": "20765-110",
    "email": "emceara@rioeduca.net",
    "telefone": "3273-1112 3273-1280",
    "lat": -22.8725041,
    "lng": -43.2835271,
    "id_setor": "1604"
  },
  {
    "sigla": "E/CRE(03.12.017)",
    "nome": "Escola Municipal Lauro Sodré",
    "endereco": "Estr. Adhemar Bebiano 785",
    "bairro": "Inhaúma",
    "cep": "21051-070",
    "email": "emlsodre@rioeduca.net",
    "telefone": "3882-8610 3884-6417",
    "lat": -22.8728112,
    "lng": -43.2689981,
    "id_setor": "1604"
  },
  {
    "sigla": "E/CRE(03.12.018)",
    "nome": "Escola Municipal Nicolau Antônio Taunay",
    "endereco": "Rua Gimirim s/nº",
    "bairro": "Inhaúma",
    "cep": "21051-330",
    "email": "emtaunay@rioeduca.net",
    "telefone": "3315-0745 3273-1344",
    "lat": -22.8751127,
    "lng": -43.2757089,
    "id_setor": "1604"
  },
  {
    "sigla": "E/CRE(03.12.019)",
    "nome": "Escola Municipal Olavo Josino de Salles",
    "endereco": "Rua Guarapuava s/nº",
    "bairro": "Inhaúma",
    "cep": "20765-280",
    "email": "emosalles@rioeduca.net",
    "telefone": "2592-1895 3273-1855",
    "lat": -22.8705393,
    "lng": -43.2864363,
    "id_setor": "1604"
  },
  {
    "sigla": "E/CRE(03.12.020)",
    "nome": "Escola Municipal Gustavo Armbrust",
    "endereco": "Rua Irapo S/N.°",
    "bairro": "Inhaúma",
    "cep": "21051-350",
    "email": "emgarmbrust@rioeduca.net",
    "telefone": "2583-8650 3273-1913",
    "lat": -22.8742058,
    "lng": -43.2751385,
    "id_setor": "1604"
  },
  {
    "sigla": "E/CRE(03.12.021)",
    "nome": "Escola Municipal Eurico Vilela",
    "endereco": "Rua Lagoa Clara S/Nº",
    "bairro": "Inhaúma",
    "cep": "21051-370",
    "email": "emevillela@rioeduca.net",
    "telefone": "3888-3843 3888-7853",
    "lat": -22.8739158,
    "lng": -43.2721418,
    "id_setor": "1604"
  },
  {
    "sigla": "E/CRE(03.12.022)",
    "nome": "Escola Municipal Rubens Berardo",
    "endereco": "Av. Itaóca 2.326",
    "bairro": "Inhaúma",
    "cep": "21061-770",
    "email": "emrberardo@rioeduca.net",
    "telefone": "3885-5667 3885-6066",
    "lat": -22.8673267,
    "lng": -43.2699073,
    "id_setor": "1604"
  },
  {
    "sigla": "E/CRE(03.12.023)",
    "nome": "Escola Municipal Joaquim Ribeiro",
    "endereco": "Pça. Soldado Cosme dos Santos 28",
    "bairro": "Inhaúma",
    "cep": "20760-590",
    "email": "emjribeiro@rioeduca.net",
    "telefone": "3272-2320 3275-9905",
    "lat": -22.8776309,
    "lng": -43.2856355,
    "id_setor": "1604"
  },
  {
    "sigla": "E/CRE(03.12.024)",
    "nome": "Escola Municipal Domingos Bebiano",
    "endereco": "Estr. Adhemar Bebiano  1870",
    "bairro": "Inhaúma",
    "cep": "21061-750",
    "email": "ccdbebiano@rioeduca.net",
    "telefone": "3315-2149 2583-0116",
    "lat": -22.8738287,
    "lng": -43.2778054,
    "id_setor": "1604"
  },
  {
    "sigla": "E/CRE(03.12.025)",
    "nome": "Escola Municipal Professora Arminda Moreira Padova",
    "endereco": "Rua Chapadinha s/nº",
    "bairro": "Inhaúma",
    "cep": "21051-300",
    "email": "emppadova@rioeduca.net",
    "telefone": "3885-6556 3885-6537",
    "lat": -22.8726841,
    "lng": -43.2709779,
    "id_setor": "1604"
  },
  {
    "sigla": "E/CRE(03.12.027)",
    "nome": "Escola Municipal Professor Afonso Várzea",
    "endereco": "Av. Itaóca 2.086",
    "bairro": "Inhaúma",
    "cep": "21061-770",
    "email": "empvarzea@rioeduca.net",
    "telefone": "3885-4555 8459-7171",
    "lat": -22.8673267,
    "lng": -43.2699073,
    "id_setor": "1604"
  },
  {
    "sigla": "E/CRE(03.12.029)",
    "nome": "Escola Municipal José Marti",
    "endereco": "Pça. Abuna, S/N°",
    "bairro": "Engenho da Rainha",
    "cep": "20761-270",
    "email": "emjmarti@rioeduca.net",
    "telefone": "3272-5491 3273-1766",
    "lat": -22.8702496,
    "lng": -43.2948403,
    "id_setor": "1604"
  },
  {
    "sigla": "E/CRE(03.12.030)",
    "nome": "Escola Municipal Marechal Estevão Leitão de Carvalho",
    "endereco": "Av. Pastor Martin Luther King 3217",
    "bairro": "Tomás Coelho",
    "cep": "20761-121",
    "email": "emcarvalho@rioeduca.net",
    "telefone": "3273-1389 3273-1951",
    "lat": -22.8687806,
    "lng": -43.2967166,
    "id_setor": "1604"
  },
  {
    "sigla": "E/CRE(03.12.031)",
    "nome": "Escola Municipal Eurico Salles",
    "endereco": "Av. Pastor Martin Luther King,  3.416",
    "bairro": "Inhaúma",
    "cep": "20766-730",
    "email": "emesalles@rioeduca.net",
    "telefone": "3273-1310 3273-1090",
    "lat": -22.8738179,
    "lng": -43.286088,
    "id_setor": "1604"
  },
  {
    "sigla": "E/CRE(03.12.032)",
    "nome": "Escola Municipal Reverendo Álvaro Reis",
    "endereco": "Estr.Adhemar Bebiano 4341",
    "bairro": "Engenho da Rainha",
    "cep": "20765-171",
    "email": "emrreis@rioeduca.net",
    "telefone": "2593-8048 3273-1471",
    "lat": -22.8668154,
    "lng": -43.2960965,
    "id_setor": "1604"
  },
  {
    "sigla": "E/CRE(03.12.033)",
    "nome": "Escola Municipal Levy Neves",
    "endereco": "Rua J(B Carvalho) 64",
    "bairro": "Engenho da Rainha",
    "cep": "20765-400",
    "email": "emlneves@rioeduca.net",
    "telefone": "3273-1164 3273-1372",
    "lat": -22.8641116,
    "lng": -43.3024138,
    "id_setor": "1604"
  },
  {
    "sigla": "E/CRE(03.12.034)",
    "nome": "Escola Municipal Liberato Bittencourt",
    "endereco": "Rua César do Rêgo Monteiro Filho S/Nº",
    "bairro": "Engenho Da Rainha",
    "cep": "20761-380",
    "email": "emlbittencourt@rioeduca.net",
    "telefone": "3273-1945 2592-0549",
    "lat": -22.8702701,
    "lng": -43.2978956,
    "id_setor": "1604"
  },
  {
    "sigla": "E/CRE(03.12.035)",
    "nome": "Escola Municipal Antônio Pereira",
    "endereco": "Rua Moacir de Almeida  771",
    "bairro": "Tomás Coelho",
    "cep": "20750-340",
    "email": "emapereira@rioeduca.net",
    "telefone": "3273-1442 3273-1924",
    "lat": -22.8711587,
    "lng": -43.3101663,
    "id_setor": "1604"
  },
  {
    "sigla": "E/CRE(03.12.037)",
    "nome": "Escola Municipal Professora Vera Saback Sampaio",
    "endereco": "Estrada de Itararé 1071",
    "bairro": "Ramos",
    "cep": "21061-240",
    "email": "emverasampaio@rioeduca.net",
    "telefone": "3882-1480 3888-8356",
    "lat": -22.8670485,
    "lng": -43.269479,
    "id_setor": "1604"
  },
  {
    "sigla": "E/CRE(03.12.040)",
    "nome": "Escola Municipal Engenho da Rainha",
    "endereco": "Rua Pereira Pinto 13",
    "bairro": "Tomás Coelho",
    "cep": "20761-350",
    "email": "ccerainha@rioeduca.net",
    "telefone": "2595-6341 2593-1319",
    "lat": -22.8680254,
    "lng": -43.3040558,
    "id_setor": "1604"
  },
  {
    "sigla": "E/CRE(03.12.041)",
    "nome": "Escola Municipal José Aparecido do Prado Sarti",
    "endereco": "Rua Alcides de Oliveira s/nº",
    "bairro": "Inhaúma",
    "cep": "20765-190",
    "email": "emsarti@rioeduca.net",
    "telefone": "3273-1480 3822-4607",
    "lat": -22.8686264,
    "lng": -43.2867363,
    "id_setor": "1604"
  },
  {
    "sigla": "E/CRE(03.12.043)",
    "nome": "Escola Municipal Cívico Militar Carioca",
    "endereco": "Rua Conde de porto Alegre 301 Bloco 3",
    "bairro": "Rocha",
    "cep": "20960-110",
    "email": "",
    "telefone": "",
    "lat": -22.8985956,
    "lng": -43.2508365,
    "id_setor": "1604"
  },
  {
    "sigla": "E/CRE(03.12.044)",
    "nome": "Escola Municipal Elza Soares",
    "endereco": "Rua Ana Neri 1552 Bloco 2",
    "bairro": "Rocha",
    "cep": "20960-005",
    "email": "",
    "telefone": "",
    "lat": -22.9007343,
    "lng": -43.2506997,
    "id_setor": "1604"
  },
  {
    "sigla": "E/CRE(03.12.501)",
    "nome": "Ciep Patrice Lumumba",
    "endereco": "Praça Da Confederação Suíça,  s/nº",
    "bairro": "Del Castilho",
    "cep": "20760-020",
    "email": "ciepplumumba@rioeduca.net",
    "telefone": "2218-5489 3278-3937",
    "lat": -22.8786683,
    "lng": -43.2753211,
    "id_setor": "1604"
  },
  {
    "sigla": "E/CRE(03.12.502)",
    "nome": "Ciep Procópio Ferreira",
    "endereco": "Praça Da Confederação Suíça S/N.º",
    "bairro": "Del Castilho",
    "cep": "20760-020",
    "email": "cieppferreira@rioeduca.net",
    "telefone": "2218-5490 3278-3499",
    "lat": -22.8786683,
    "lng": -43.2753211,
    "id_setor": "1604"
  },
  {
    "sigla": "E/CRE(03.12.503)",
    "nome": "Ciep Coronel Sarmento",
    "endereco": "Av. Itaóca S/Nº",
    "bairro": "Inhaúma",
    "cep": "21061-771",
    "email": "ciepasarmento@rioeduca.net",
    "telefone": "3273-1804 3273-1760",
    "lat": -22.8689106,
    "lng": -43.2752759,
    "id_setor": "1604"
  },
  {
    "sigla": "E/CRE(03.12.601)",
    "nome": "Creche Municipal Cantinho Feliz",
    "endereco": "Praça dos Esportes 10",
    "bairro": "Inhaúma",
    "cep": "20760-110",
    "email": "cmcfeliz@rioeduca.net",
    "telefone": "2593-1839",
    "lat": -22.8806554,
    "lng": -43.2814223,
    "id_setor": "1604"
  },
  {
    "sigla": "E/CRE(03.12.602)",
    "nome": "Creche Municipal Engenho da Rainha",
    "endereco": "Rua Pereira Pinto 19",
    "bairro": "Tomás Coelho",
    "cep": "20761-350",
    "email": "cmerainha@rioeduca.net",
    "telefone": "3272-5557",
    "lat": -22.8681339,
    "lng": -43.30391059999999,
    "id_setor": "1604"
  },
  {
    "sigla": "E/CRE(03.12.603)",
    "nome": "Creche Municipal Renascer",
    "endereco": "Rua Engenheiro José de Castro S/Nº",
    "bairro": "Del Castilho",
    "cep": "20760-040",
    "email": "cmrenascer@rioeduca.net",
    "telefone": "3277-4215",
    "lat": -22.8806178,
    "lng": -43.2792045,
    "id_setor": "1604"
  },
  {
    "sigla": "E/CRE(03.12.801)",
    "nome": "Espaço de Desenvolvimento Infantil Henrique Foréis",
    "endereco": "Rua Manoel Maurício  S/Nº",
    "bairro": "Inhaúma",
    "cep": "20765-295",
    "email": "edihenrique@rioeduca.net",
    "telefone": "3888-7603",
    "lat": -22.8627174,
    "lng": -43.2851156,
    "id_setor": "1604"
  },
  {
    "sigla": "E/CRE(03.12.802)",
    "nome": "Espaço de Desenvolvimento Infantil Lucia Maria Batista de Albuquerque",
    "endereco": "Estrada do Itararé     ( Itararé ) 1031 em frente ao1615",
    "bairro": "Ramos",
    "cep": "21061-240",
    "email": "ediluciamaria@rioeduca.net",
    "telefone": "3315-3287",
    "lat": -22.8657947,
    "lng": -43.2688454,
    "id_setor": "1604"
  },
  {
    "sigla": "E/CRE(03.12.803)",
    "nome": "Espaço de Desenvolvimento Infantil Professora Luiza Helena Maia Medeiros",
    "endereco": "Travessa Guanajuato s/n°",
    "bairro": "Inhaúma",
    "cep": "20960-005",
    "email": "edipmedeiros@rioeduca.net",
    "telefone": "3315-1911",
    "lat": -22.8714919,
    "lng": -43.282418,
    "id_setor": "1604"
  },
  {
    "sigla": "E/CRE(03.12.804)",
    "nome": "Espaço de Desenvolvimento Infantil Professora Tania Martins Novo Lenz",
    "endereco": "Rua Italia D`Incau s/n°",
    "bairro": "Tomáz Coelho",
    "cep": "21381-240",
    "email": "edilenz@rioeduca.net",
    "telefone": "3278-4274",
    "lat": -22.8732458,
    "lng": -43.3085682,
    "id_setor": "1604"
  },